{
"type": "FeatureCollection",
"name": "USCounties_centroids",
"crs": { "type": "name", "properties": { "name": "urn:ogc:def:crs:OGC:1.3:CRS84" } },
"features": [
{ "type": "Feature", "properties": { "STATEFP": "21", "COUNTYFP": "007", "COUNTYNS": "00516850", "AFFGEOID": "0500000US21007", "GEOID": "21007", "NAME": "Ballard", "LSAD": "06", "ALAND": 639387454, "AWATER": 69473325, "x_coord": -88.999256, "y_coord": 37.058482 }, "geometry": { "type": "Point", "coordinates": [ -88.999255888339235, 37.05848196169255 ] } },
{ "type": "Feature", "properties": { "STATEFP": "21", "COUNTYFP": "017", "COUNTYNS": "00516855", "AFFGEOID": "0500000US21017", "GEOID": "21017", "NAME": "Bourbon", "LSAD": "06", "ALAND": 750439351, "AWATER": 4829777, "x_coord": -84.217151, "y_coord": 38.206735 }, "geometry": { "type": "Point", "coordinates": [ -84.217150573922467, 38.206734524949582 ] } },
{ "type": "Feature", "properties": { "STATEFP": "21", "COUNTYFP": "031", "COUNTYNS": "00516862", "AFFGEOID": "0500000US21031", "GEOID": "21031", "NAME": "Butler", "LSAD": "06", "ALAND": 1103571974, "AWATER": 13943044, "x_coord": -86.681623, "y_coord": 37.207285 }, "geometry": { "type": "Point", "coordinates": [ -86.681623343151259, 37.207284503217736 ] } },
{ "type": "Feature", "properties": { "STATEFP": "21", "COUNTYFP": "065", "COUNTYNS": "00516879", "AFFGEOID": "0500000US21065", "GEOID": "21065", "NAME": "Estill", "LSAD": "06", "ALAND": 655509930, "AWATER": 6516335, "x_coord": -83.964311, "y_coord": 37.692444 }, "geometry": { "type": "Point", "coordinates": [ -83.964311214022302, 37.692444227274329 ] } },
{ "type": "Feature", "properties": { "STATEFP": "21", "COUNTYFP": "069", "COUNTYNS": "00516881", "AFFGEOID": "0500000US21069", "GEOID": "21069", "NAME": "Fleming", "LSAD": "06", "ALAND": 902727151, "AWATER": 7182793, "x_coord": -83.696656, "y_coord": 38.370118 }, "geometry": { "type": "Point", "coordinates": [ -83.696656010938597, 38.370118181282606 ] } },
{ "type": "Feature", "properties": { "STATEFP": "21", "COUNTYFP": "093", "COUNTYNS": "00516893", "AFFGEOID": "0500000US21093", "GEOID": "21093", "NAME": "Hardin", "LSAD": "06", "ALAND": 1614569777, "AWATER": 17463238, "x_coord": -85.963448, "y_coord": 37.697924 }, "geometry": { "type": "Point", "coordinates": [ -85.963448165645417, 37.697923748277894 ] } },
{ "type": "Feature", "properties": { "STATEFP": "21", "COUNTYFP": "099", "COUNTYNS": "00516896", "AFFGEOID": "0500000US21099", "GEOID": "21099", "NAME": "Hart", "LSAD": "06", "ALAND": 1068530028, "AWATER": 13692536, "x_coord": -85.884691, "y_coord": 37.29993 }, "geometry": { "type": "Point", "coordinates": [ -85.884691257150081, 37.299930032136444 ] } },
{ "type": "Feature", "properties": { "STATEFP": "21", "COUNTYFP": "131", "COUNTYNS": "00516912", "AFFGEOID": "0500000US21131", "GEOID": "21131", "NAME": "Leslie", "LSAD": "06", "ALAND": 1038206077, "AWATER": 9189732, "x_coord": -83.381128, "y_coord": 37.094069 }, "geometry": { "type": "Point", "coordinates": [ -83.381127550859077, 37.094068619347205 ] } },
{ "type": "Feature", "properties": { "STATEFP": "21", "COUNTYFP": "151", "COUNTYNS": "00516919", "AFFGEOID": "0500000US21151", "GEOID": "21151", "NAME": "Madison", "LSAD": "06", "ALAND": 1132729653, "AWATER": 15306635, "x_coord": -84.278004, "y_coord": 37.720183 }, "geometry": { "type": "Point", "coordinates": [ -84.278004226797705, 37.720182524752786 ] } },
{ "type": "Feature", "properties": { "STATEFP": "21", "COUNTYFP": "155", "COUNTYNS": "00516921", "AFFGEOID": "0500000US21155", "GEOID": "21155", "NAME": "Marion", "LSAD": "06", "ALAND": 888463701, "AWATER": 9891797, "x_coord": -85.269636, "y_coord": 37.552536 }, "geometry": { "type": "Point", "coordinates": [ -85.269636097230176, 37.552536011601205 ] } },
{ "type": "Feature", "properties": { "STATEFP": "21", "COUNTYFP": "179", "COUNTYNS": "00516936", "AFFGEOID": "0500000US21179", "GEOID": "21179", "NAME": "Nelson", "LSAD": "06", "ALAND": 1081354961, "AWATER": 16997384, "x_coord": -85.465958, "y_coord": 37.805154 }, "geometry": { "type": "Point", "coordinates": [ -85.465958016521057, 37.805154004783802 ] } },
{ "type": "Feature", "properties": { "STATEFP": "17", "COUNTYFP": "091", "COUNTYNS": "00424247", "AFFGEOID": "0500000US17091", "GEOID": "17091", "NAME": "Kankakee", "LSAD": "06", "ALAND": 1752121058, "AWATER": 12440760, "x_coord": -87.861831, "y_coord": 41.13771 }, "geometry": { "type": "Point", "coordinates": [ -87.861831292759476, 41.137710259371715 ] } },
{ "type": "Feature", "properties": { "STATEFP": "17", "COUNTYFP": "187", "COUNTYNS": "01785134", "AFFGEOID": "0500000US17187", "GEOID": "17187", "NAME": "Warren", "LSAD": "06", "ALAND": 1404747944, "AWATER": 1674135, "x_coord": -90.61501, "y_coord": 40.848817 }, "geometry": { "type": "Point", "coordinates": [ -90.615010394629863, 40.848816760112442 ] } },
{ "type": "Feature", "properties": { "STATEFP": "17", "COUNTYFP": "197", "COUNTYNS": "01785190", "AFFGEOID": "0500000US17197", "GEOID": "17197", "NAME": "Will", "LSAD": "06", "ALAND": 2164927644, "AWATER": 34548925, "x_coord": -87.978642, "y_coord": 41.445043 }, "geometry": { "type": "Point", "coordinates": [ -87.978642421483386, 41.445042703825116 ] } },
{ "type": "Feature", "properties": { "STATEFP": "18", "COUNTYFP": "027", "COUNTYNS": "00450343", "AFFGEOID": "0500000US18027", "GEOID": "18027", "NAME": "Daviess", "LSAD": "06", "ALAND": 1112374406, "AWATER": 19124393, "x_coord": -87.072045, "y_coord": 38.702406 }, "geometry": { "type": "Point", "coordinates": [ -87.07204460457892, 38.702406073872638 ] } },
{ "type": "Feature", "properties": { "STATEFP": "18", "COUNTYFP": "061", "COUNTYNS": "00451677", "AFFGEOID": "0500000US18061", "GEOID": "18061", "NAME": "Harrison", "LSAD": "06", "ALAND": 1254889433, "AWATER": 5193186, "x_coord": -86.111307, "y_coord": 38.195172 }, "geometry": { "type": "Point", "coordinates": [ -86.11130682918801, 38.195171525052444 ] } },
{ "type": "Feature", "properties": { "STATEFP": "01", "COUNTYFP": "001", "COUNTYNS": "00161526", "AFFGEOID": "0500000US01001", "GEOID": "01001", "NAME": "Autauga", "LSAD": "06", "ALAND": 1539602123, "AWATER": 25706961, "x_coord": -86.64273, "y_coord": 32.534923 }, "geometry": { "type": "Point", "coordinates": [ -86.642730137394565, 32.534922932928104 ] } },
{ "type": "Feature", "properties": { "STATEFP": "01", "COUNTYFP": "005", "COUNTYNS": "00161528", "AFFGEOID": "0500000US01005", "GEOID": "01005", "NAME": "Barbour", "LSAD": "06", "ALAND": 2292144655, "AWATER": 50538698, "x_coord": -85.39321, "y_coord": 31.869581 }, "geometry": { "type": "Point", "coordinates": [ -85.393209789025661, 31.869581438362289 ] } },
{ "type": "Feature", "properties": { "STATEFP": "01", "COUNTYFP": "023", "COUNTYNS": "00161537", "AFFGEOID": "0500000US01023", "GEOID": "01023", "NAME": "Choctaw", "LSAD": "06", "ALAND": 2365869835, "AWATER": 19144469, "x_coord": -88.26318, "y_coord": 32.019772 }, "geometry": { "type": "Point", "coordinates": [ -88.263179809979107, 32.019771720975648 ] } },
{ "type": "Feature", "properties": { "STATEFP": "01", "COUNTYFP": "035", "COUNTYNS": "00161543", "AFFGEOID": "0500000US01035", "GEOID": "01035", "NAME": "Conecuh", "LSAD": "06", "ALAND": 2202007854, "AWATER": 6632046, "x_coord": -86.993662, "y_coord": 31.429237 }, "geometry": { "type": "Point", "coordinates": [ -86.993661507255638, 31.429236930250163 ] } },
{ "type": "Feature", "properties": { "STATEFP": "01", "COUNTYFP": "051", "COUNTYNS": "00161551", "AFFGEOID": "0500000US01051", "GEOID": "01051", "NAME": "Elmore", "LSAD": "06", "ALAND": 1601769095, "AWATER": 99957723, "x_coord": -86.149157, "y_coord": 32.596647 }, "geometry": { "type": "Point", "coordinates": [ -86.149157155346558, 32.596647498265455 ] } },
{ "type": "Feature", "properties": { "STATEFP": "01", "COUNTYFP": "055", "COUNTYNS": "00161553", "AFFGEOID": "0500000US01055", "GEOID": "01055", "NAME": "Etowah", "LSAD": "06", "ALAND": 1386373604, "AWATER": 34568854, "x_coord": -86.034763, "y_coord": 34.045257 }, "geometry": { "type": "Point", "coordinates": [ -86.034763326970563, 34.0452566702306 ] } },
{ "type": "Feature", "properties": { "STATEFP": "01", "COUNTYFP": "065", "COUNTYNS": "00161558", "AFFGEOID": "0500000US01065", "GEOID": "01065", "NAME": "Hale", "LSAD": "06", "ALAND": 1667907112, "AWATER": 32423361, "x_coord": -87.629149, "y_coord": 32.762663 }, "geometry": { "type": "Point", "coordinates": [ -87.629149366517709, 32.76266345818614 ] } },
{ "type": "Feature", "properties": { "STATEFP": "01", "COUNTYFP": "089", "COUNTYNS": "00161570", "AFFGEOID": "0500000US01089", "GEOID": "01089", "NAME": "Madison", "LSAD": "06", "ALAND": 2076091216, "AWATER": 28831382, "x_coord": -86.550225, "y_coord": 34.76309 }, "geometry": { "type": "Point", "coordinates": [ -86.550224716366472, 34.7630904735827 ] } },
{ "type": "Feature", "properties": { "STATEFP": "01", "COUNTYFP": "113", "COUNTYNS": "00161583", "AFFGEOID": "0500000US01113", "GEOID": "01113", "NAME": "Russell", "LSAD": "06", "ALAND": 1660577613, "AWATER": 15641643, "x_coord": -85.184925, "y_coord": 32.288393 }, "geometry": { "type": "Point", "coordinates": [ -85.184924867496349, 32.288393242533495 ] } },
{ "type": "Feature", "properties": { "STATEFP": "01", "COUNTYFP": "117", "COUNTYNS": "00161584", "AFFGEOID": "0500000US01117", "GEOID": "01117", "NAME": "Shelby", "LSAD": "06", "ALAND": 2034112797, "AWATER": 62537787, "x_coord": -86.660665, "y_coord": 33.264278 }, "geometry": { "type": "Point", "coordinates": [ -86.660665413073247, 33.264277601125045 ] } },
{ "type": "Feature", "properties": { "STATEFP": "02", "COUNTYFP": "016", "COUNTYNS": "01419965", "AFFGEOID": "0500000US02016", "GEOID": "02016", "NAME": "Aleutians West", "LSAD": "05", "ALAND": 11375510886, "AWATER": 25186009907, "x_coord": -106.60606, "y_coord": 52.797996 }, "geometry": { "type": "Point", "coordinates": [ -106.606059970864578, 52.797996316256395 ] } },
{ "type": "Feature", "properties": { "STATEFP": "02", "COUNTYFP": "130", "COUNTYNS": "01419973", "AFFGEOID": "0500000US02130", "GEOID": "02130", "NAME": "Ketchikan Gateway", "LSAD": "04", "ALAND": 12579243763, "AWATER": 4651750442, "x_coord": -130.928809, "y_coord": 55.585162 }, "geometry": { "type": "Point", "coordinates": [ -130.928809265175971, 55.585161705720147 ] } },
{ "type": "Feature", "properties": { "STATEFP": "02", "COUNTYFP": "180", "COUNTYNS": "01419977", "AFFGEOID": "0500000US02180", "GEOID": "02180", "NAME": "Nome", "LSAD": "05", "ALAND": 59497122355, "AWATER": 13774270048, "x_coord": -164.027212, "y_coord": 64.911092 }, "geometry": { "type": "Point", "coordinates": [ -164.027211679141203, 64.911092142615871 ] } },
{ "type": "Feature", "properties": { "STATEFP": "02", "COUNTYFP": "282", "COUNTYNS": "01419986", "AFFGEOID": "0500000US02282", "GEOID": "02282", "NAME": "Yakutat", "LSAD": "03", "ALAND": 19744199346, "AWATER": 3986129001, "x_coord": -140.357687, "y_coord": 59.888895 }, "geometry": { "type": "Point", "coordinates": [ -140.35768726394187, 59.888895226080294 ] } },
{ "type": "Feature", "properties": { "STATEFP": "05", "COUNTYFP": "011", "COUNTYNS": "00063757", "AFFGEOID": "0500000US05011", "GEOID": "05011", "NAME": "Bradley", "LSAD": "06", "ALAND": 1681514472, "AWATER": 9532926, "x_coord": -92.162398, "y_coord": 33.46642 }, "geometry": { "type": "Point", "coordinates": [ -92.162398239804901, 33.466419933345385 ] } },
{ "type": "Feature", "properties": { "STATEFP": "05", "COUNTYFP": "015", "COUNTYNS": "00066975", "AFFGEOID": "0500000US05015", "GEOID": "05015", "NAME": "Carroll", "LSAD": "06", "ALAND": 1631600824, "AWATER": 22431173, "x_coord": -93.538238, "y_coord": 36.34102 }, "geometry": { "type": "Point", "coordinates": [ -93.53823819549703, 36.341019683752542 ] } },
{ "type": "Feature", "properties": { "STATEFP": "05", "COUNTYFP": "019", "COUNTYNS": "00066845", "AFFGEOID": "0500000US05019", "GEOID": "05019", "NAME": "Clark", "LSAD": "06", "ALAND": 2243130281, "AWATER": 43387661, "x_coord": -93.176367, "y_coord": 34.050971 }, "geometry": { "type": "Point", "coordinates": [ -93.176366766893949, 34.050970670851633 ] } },
{ "type": "Feature", "properties": { "STATEFP": "05", "COUNTYFP": "025", "COUNTYNS": "00063760", "AFFGEOID": "0500000US05025", "GEOID": "05025", "NAME": "Cleveland", "LSAD": "06", "ALAND": 1548253400, "AWATER": 2500196, "x_coord": -92.185189, "y_coord": 33.898373 }, "geometry": { "type": "Point", "coordinates": [ -92.185188957066813, 33.898373124574086 ] } },
{ "type": "Feature", "properties": { "STATEFP": "05", "COUNTYFP": "063", "COUNTYNS": "00069163", "AFFGEOID": "0500000US05063", "GEOID": "05063", "NAME": "Independence", "LSAD": "06", "ALAND": 1978631568, "AWATER": 19593589, "x_coord": -91.569709, "y_coord": 35.741572 }, "geometry": { "type": "Point", "coordinates": [ -91.569708712400811, 35.741572484976111 ] } },
{ "type": "Feature", "properties": { "STATEFP": "05", "COUNTYFP": "067", "COUNTYNS": "00066861", "AFFGEOID": "0500000US05067", "GEOID": "05067", "NAME": "Jackson", "LSAD": "06", "ALAND": 1641853231, "AWATER": 19623382, "x_coord": -91.214566, "y_coord": 35.599222 }, "geometry": { "type": "Point", "coordinates": [ -91.214566102851123, 35.599222110780858 ] } },
{ "type": "Feature", "properties": { "STATEFP": "05", "COUNTYFP": "121", "COUNTYNS": "00069178", "AFFGEOID": "0500000US05121", "GEOID": "05121", "NAME": "Randolph", "LSAD": "06", "ALAND": 1689251367, "AWATER": 9889906, "x_coord": -91.027709, "y_coord": 36.341459 }, "geometry": { "type": "Point", "coordinates": [ -91.027708533095833, 36.34145903265388 ] } },
{ "type": "Feature", "properties": { "STATEFP": "06", "COUNTYFP": "001", "COUNTYNS": "01675839", "AFFGEOID": "0500000US06001", "GEOID": "06001", "NAME": "Alameda", "LSAD": "06", "ALAND": 1909598013, "AWATER": 216923745, "x_coord": -121.888867, "y_coord": 37.646893 }, "geometry": { "type": "Point", "coordinates": [ -121.888867476556712, 37.646893227585394 ] } },
{ "type": "Feature", "properties": { "STATEFP": "06", "COUNTYFP": "003", "COUNTYNS": "01675840", "AFFGEOID": "0500000US06003", "GEOID": "06003", "NAME": "Alpine", "LSAD": "06", "ALAND": 1912292630, "AWATER": 12557304, "x_coord": -119.82067, "y_coord": 38.597197 }, "geometry": { "type": "Point", "coordinates": [ -119.820669746180684, 38.597196767398856 ] } },
{ "type": "Feature", "properties": { "STATEFP": "06", "COUNTYFP": "005", "COUNTYNS": "01675841", "AFFGEOID": "0500000US06005", "GEOID": "06005", "NAME": "Amador", "LSAD": "06", "ALAND": 1539933577, "AWATER": 29470567, "x_coord": -120.651093, "y_coord": 38.446391 }, "geometry": { "type": "Point", "coordinates": [ -120.651093333409079, 38.446391490362664 ] } },
{ "type": "Feature", "properties": { "STATEFP": "06", "COUNTYFP": "013", "COUNTYNS": "01675903", "AFFGEOID": "0500000US06013", "GEOID": "06013", "NAME": "Contra Costa", "LSAD": "06", "ALAND": 1857233047, "AWATER": 225282636, "x_coord": -121.927788, "y_coord": 37.919122 }, "geometry": { "type": "Point", "coordinates": [ -121.927788191069567, 37.919122336927202 ] } },
{ "type": "Feature", "properties": { "STATEFP": "06", "COUNTYFP": "019", "COUNTYNS": "00277274", "AFFGEOID": "0500000US06019", "GEOID": "06019", "NAME": "Fresno", "LSAD": "06", "ALAND": 15431404077, "AWATER": 137345152, "x_coord": -119.649307, "y_coord": 36.758198 }, "geometry": { "type": "Point", "coordinates": [ -119.649307237091818, 36.758197639814483 ] } },
{ "type": "Feature", "properties": { "STATEFP": "06", "COUNTYFP": "023", "COUNTYNS": "01681908", "AFFGEOID": "0500000US06023", "GEOID": "06023", "NAME": "Humboldt", "LSAD": "06", "ALAND": 9241527430, "AWATER": 1253763757, "x_coord": -123.875629, "y_coord": 40.699298 }, "geometry": { "type": "Point", "coordinates": [ -123.87562886590834, 40.699297540642149 ] } },
{ "type": "Feature", "properties": { "STATEFP": "06", "COUNTYFP": "033", "COUNTYNS": "00277281", "AFFGEOID": "0500000US06033", "GEOID": "06033", "NAME": "Lake", "LSAD": "06", "ALAND": 3254364315, "AWATER": 188836455, "x_coord": -122.75319, "y_coord": 39.099617 }, "geometry": { "type": "Point", "coordinates": [ -122.753189886864078, 39.099617207452809 ] } },
{ "type": "Feature", "properties": { "STATEFP": "06", "COUNTYFP": "037", "COUNTYNS": "00277283", "AFFGEOID": "0500000US06037", "GEOID": "06037", "NAME": "Los Angeles", "LSAD": "06", "ALAND": 10510671776, "AWATER": 1794675167, "x_coord": -118.22481, "y_coord": 34.320743 }, "geometry": { "type": "Point", "coordinates": [ -118.224809984163358, 34.320742959221086 ] } },
{ "type": "Feature", "properties": { "STATEFP": "06", "COUNTYFP": "047", "COUNTYNS": "00277288", "AFFGEOID": "0500000US06047", "GEOID": "06047", "NAME": "Merced", "LSAD": "06", "ALAND": 5013300944, "AWATER": 111383846, "x_coord": -120.717652, "y_coord": 37.19189 }, "geometry": { "type": "Point", "coordinates": [ -120.717652312887793, 37.191889864977753 ] } },
{ "type": "Feature", "properties": { "STATEFP": "06", "COUNTYFP": "057", "COUNTYNS": "01682927", "AFFGEOID": "0500000US06057", "GEOID": "06057", "NAME": "Nevada", "LSAD": "06", "ALAND": 2480587324, "AWATER": 41531993, "x_coord": -120.768451, "y_coord": 39.301363 }, "geometry": { "type": "Point", "coordinates": [ -120.768451073428537, 39.301363059753328 ] } },
{ "type": "Feature", "properties": { "STATEFP": "06", "COUNTYFP": "081", "COUNTYNS": "00277305", "AFFGEOID": "0500000US06081", "GEOID": "06081", "NAME": "San Mateo", "LSAD": "06", "ALAND": 1161960635, "AWATER": 757110545, "x_coord": -122.329017, "y_coord": 37.422897 }, "geometry": { "type": "Point", "coordinates": [ -122.329016541280353, 37.422897430599775 ] } },
{ "type": "Feature", "properties": { "STATEFP": "06", "COUNTYFP": "085", "COUNTYNS": "00277307", "AFFGEOID": "0500000US06085", "GEOID": "06085", "NAME": "Santa Clara", "LSAD": "06", "ALAND": 3343896477, "AWATER": 33589866, "x_coord": -121.695126, "y_coord": 37.231785 }, "geometry": { "type": "Point", "coordinates": [ -121.695126306595213, 37.231785029812926 ] } },
{ "type": "Feature", "properties": { "STATEFP": "06", "COUNTYFP": "115", "COUNTYNS": "00277322", "AFFGEOID": "0500000US06115", "GEOID": "06115", "NAME": "Yuba", "LSAD": "06", "ALAND": 1636913845, "AWATER": 31057995, "x_coord": -121.351264, "y_coord": 39.269007 }, "geometry": { "type": "Point", "coordinates": [ -121.351264263127504, 39.269007183297191 ] } },
{ "type": "Feature", "properties": { "STATEFP": "08", "COUNTYFP": "013", "COUNTYNS": "00198122", "AFFGEOID": "0500000US08013", "GEOID": "08013", "NAME": "Boulder", "LSAD": "06", "ALAND": 1881290197, "AWATER": 36512644, "x_coord": -105.35773, "y_coord": 40.092489 }, "geometry": { "type": "Point", "coordinates": [ -105.357729612621569, 40.092488552325293 ] } },
{ "type": "Feature", "properties": { "STATEFP": "08", "COUNTYFP": "029", "COUNTYNS": "00198130", "AFFGEOID": "0500000US08029", "GEOID": "08029", "NAME": "Delta", "LSAD": "06", "ALAND": 2958095177, "AWATER": 16782598, "x_coord": -107.862889, "y_coord": 38.861359 }, "geometry": { "type": "Point", "coordinates": [ -107.862889158218621, 38.861359153761597 ] } },
{ "type": "Feature", "properties": { "STATEFP": "08", "COUNTYFP": "049", "COUNTYNS": "00198140", "AFFGEOID": "0500000US08049", "GEOID": "08049", "NAME": "Grand", "LSAD": "06", "ALAND": 4782260510, "AWATER": 59902381, "x_coord": -106.11833, "y_coord": 40.102631 }, "geometry": { "type": "Point", "coordinates": [ -106.118330459653308, 40.102630765360203 ] } },
{ "type": "Feature", "properties": { "STATEFP": "08", "COUNTYFP": "077", "COUNTYNS": "00198154", "AFFGEOID": "0500000US08077", "GEOID": "08077", "NAME": "Mesa", "LSAD": "06", "ALAND": 8621899288, "AWATER": 31440501, "x_coord": -108.466442, "y_coord": 39.018302 }, "geometry": { "type": "Point", "coordinates": [ -108.466442363987824, 39.018301523799288 ] } },
{ "type": "Feature", "properties": { "STATEFP": "08", "COUNTYFP": "083", "COUNTYNS": "00198157", "AFFGEOID": "0500000US08083", "GEOID": "08083", "NAME": "Montezuma", "LSAD": "06", "ALAND": 5255937129, "AWATER": 27261089, "x_coord": -108.596577, "y_coord": 37.338562 }, "geometry": { "type": "Point", "coordinates": [ -108.596577131301771, 37.338562490662113 ] } },
{ "type": "Feature", "properties": { "STATEFP": "08", "COUNTYFP": "091", "COUNTYNS": "00198161", "AFFGEOID": "0500000US08091", "GEOID": "08091", "NAME": "Ouray", "LSAD": "06", "ALAND": 1402719365, "AWATER": 1599543, "x_coord": -107.769271, "y_coord": 38.155465 }, "geometry": { "type": "Point", "coordinates": [ -107.769271302780368, 38.155465143267165 ] } },
{ "type": "Feature", "properties": { "STATEFP": "09", "COUNTYFP": "009", "COUNTYNS": "00212798", "AFFGEOID": "0500000US09009", "GEOID": "09009", "NAME": "New Haven", "LSAD": "06", "ALAND": 1565688367, "AWATER": 667081242, "x_coord": -72.932078, "y_coord": 41.410478 }, "geometry": { "type": "Point", "coordinates": [ -72.932077618884918, 41.4104780482146 ] } },
{ "type": "Feature", "properties": { "STATEFP": "11", "COUNTYFP": "001", "COUNTYNS": "01702382", "AFFGEOID": "0500000US11001", "GEOID": "11001", "NAME": "District of Columbia", "LSAD": "00", "ALAND": 158340391, "AWATER": 18687198, "x_coord": -77.016294, "y_coord": 38.904734 }, "geometry": { "type": "Point", "coordinates": [ -77.016293838366707, 38.904733935498754 ] } },
{ "type": "Feature", "properties": { "STATEFP": "12", "COUNTYFP": "009", "COUNTYNS": "00295749", "AFFGEOID": "0500000US12009", "GEOID": "12009", "NAME": "Brevard", "LSAD": "06", "ALAND": 2629306677, "AWATER": 1403367455, "x_coord": -80.732271, "y_coord": 28.293722 }, "geometry": { "type": "Point", "coordinates": [ -80.732270502216139, 28.29372185565402 ] } },
{ "type": "Feature", "properties": { "STATEFP": "12", "COUNTYFP": "023", "COUNTYNS": "00306909", "AFFGEOID": "0500000US12023", "GEOID": "12023", "NAME": "Columbia", "LSAD": "06", "ALAND": 2065645989, "AWATER": 9755973, "x_coord": -82.621539, "y_coord": 30.224248 }, "geometry": { "type": "Point", "coordinates": [ -82.621539287925728, 30.224248045876937 ] } },
{ "type": "Feature", "properties": { "STATEFP": "12", "COUNTYFP": "039", "COUNTYNS": "00306918", "AFFGEOID": "0500000US12039", "GEOID": "12039", "NAME": "Gadsden", "LSAD": "06", "ALAND": 1337194435, "AWATER": 31686103, "x_coord": -84.613625, "y_coord": 30.579478 }, "geometry": { "type": "Point", "coordinates": [ -84.613624540080536, 30.57947808300986 ] } },
{ "type": "Feature", "properties": { "STATEFP": "12", "COUNTYFP": "055", "COUNTYNS": "00295756", "AFFGEOID": "0500000US12055", "GEOID": "12055", "NAME": "Highlands", "LSAD": "06", "ALAND": 2634768891, "AWATER": 231625544, "x_coord": -81.341038, "y_coord": 27.343294 }, "geometry": { "type": "Point", "coordinates": [ -81.341038303919376, 27.343294339378822 ] } },
{ "type": "Feature", "properties": { "STATEFP": "12", "COUNTYFP": "065", "COUNTYNS": "00295733", "AFFGEOID": "0500000US12065", "GEOID": "12065", "NAME": "Jefferson", "LSAD": "06", "ALAND": 1549012956, "AWATER": 99610823, "x_coord": -83.895292, "y_coord": 30.437489 }, "geometry": { "type": "Point", "coordinates": [ -83.895292375847504, 30.437489290653485 ] } },
{ "type": "Feature", "properties": { "STATEFP": "12", "COUNTYFP": "073", "COUNTYNS": "00306916", "AFFGEOID": "0500000US12073", "GEOID": "12073", "NAME": "Leon", "LSAD": "06", "ALAND": 1727086019, "AWATER": 90548394, "x_coord": -84.277897, "y_coord": 30.458041 }, "geometry": { "type": "Point", "coordinates": [ -84.277896690453915, 30.458040822393322 ] } },
{ "type": "Feature", "properties": { "STATEFP": "12", "COUNTYFP": "095", "COUNTYNS": "00295750", "AFFGEOID": "0500000US12095", "GEOID": "12095", "NAME": "Orange", "LSAD": "06", "ALAND": 2337566033, "AWATER": 260717886, "x_coord": -81.323512, "y_coord": 28.514425 }, "geometry": { "type": "Point", "coordinates": [ -81.323512410503142, 28.514424652065099 ] } },
{ "type": "Feature", "properties": { "STATEFP": "12", "COUNTYFP": "107", "COUNTYNS": "00306910", "AFFGEOID": "0500000US12107", "GEOID": "12107", "NAME": "Putnam", "LSAD": "06", "ALAND": 1885167077, "AWATER": 256548277, "x_coord": -81.744303, "y_coord": 29.608652 }, "geometry": { "type": "Point", "coordinates": [ -81.744303454444889, 29.608652485033286 ] } },
{ "type": "Feature", "properties": { "STATEFP": "12", "COUNTYFP": "123", "COUNTYNS": "00295728", "AFFGEOID": "0500000US12123", "GEOID": "12123", "NAME": "Taylor", "LSAD": "06", "ALAND": 2702180641, "AWATER": 489194665, "x_coord": -83.603527, "y_coord": 30.047013 }, "geometry": { "type": "Point", "coordinates": [ -83.603527013553276, 30.047012740046704 ] } },
{ "type": "Feature", "properties": { "STATEFP": "12", "COUNTYFP": "127", "COUNTYNS": "00306921", "AFFGEOID": "0500000US12127", "GEOID": "12127", "NAME": "Volusia", "LSAD": "06", "ALAND": 2852206495, "AWATER": 857789601, "x_coord": -81.181921, "y_coord": 29.058421 }, "geometry": { "type": "Point", "coordinates": [ -81.181920646418078, 29.058420690482986 ] } },
{ "type": "Feature", "properties": { "STATEFP": "12", "COUNTYFP": "131", "COUNTYNS": "00295727", "AFFGEOID": "0500000US12131", "GEOID": "12131", "NAME": "Walton", "LSAD": "06", "ALAND": 2687739968, "AWATER": 522795375, "x_coord": -86.169656, "y_coord": 30.643582 }, "geometry": { "type": "Point", "coordinates": [ -86.169655678607711, 30.643581658467347 ] } },
{ "type": "Feature", "properties": { "STATEFP": "12", "COUNTYFP": "133", "COUNTYNS": "00295762", "AFFGEOID": "0500000US12133", "GEOID": "12133", "NAME": "Washington", "LSAD": "06", "ALAND": 1514305159, "AWATER": 81008994, "x_coord": -85.665333, "y_coord": 30.610601 }, "geometry": { "type": "Point", "coordinates": [ -85.665332643757907, 30.610601173932206 ] } },
{ "type": "Feature", "properties": { "STATEFP": "13", "COUNTYFP": "009", "COUNTYNS": "00345255", "AFFGEOID": "0500000US13009", "GEOID": "13009", "NAME": "Baldwin", "LSAD": "06", "ALAND": 670027544, "AWATER": 24802965, "x_coord": -83.249556, "y_coord": 33.069266 }, "geometry": { "type": "Point", "coordinates": [ -83.249555702803292, 33.069266206040744 ] } },
{ "type": "Feature", "properties": { "STATEFP": "13", "COUNTYFP": "027", "COUNTYNS": "00345518", "AFFGEOID": "0500000US13027", "GEOID": "13027", "NAME": "Brooks", "LSAD": "06", "ALAND": 1277108810, "AWATER": 12188222, "x_coord": -83.580201, "y_coord": 30.841981 }, "geometry": { "type": "Point", "coordinates": [ -83.580201278160672, 30.841980890813783 ] } },
{ "type": "Feature", "properties": { "STATEFP": "13", "COUNTYFP": "103", "COUNTYNS": "00350219", "AFFGEOID": "0500000US13103", "GEOID": "13103", "NAME": "Effingham", "LSAD": "06", "ALAND": 1240066122, "AWATER": 10679265, "x_coord": -81.341352, "y_coord": 32.367286 }, "geometry": { "type": "Point", "coordinates": [ -81.34135177842046, 32.367286267800338 ] } },
{ "type": "Feature", "properties": { "STATEFP": "13", "COUNTYFP": "121", "COUNTYNS": "01694833", "AFFGEOID": "0500000US13121", "GEOID": "13121", "NAME": "Fulton", "LSAD": "06", "ALAND": 1364248547, "AWATER": 19674940, "x_coord": -84.466991, "y_coord": 33.790282 }, "geometry": { "type": "Point", "coordinates": [ -84.466990863304005, 33.790281935946425 ] } },
{ "type": "Feature", "properties": { "STATEFP": "13", "COUNTYFP": "141", "COUNTYNS": "00348209", "AFFGEOID": "0500000US13141", "GEOID": "13141", "NAME": "Hancock", "LSAD": "06", "ALAND": 1220058034, "AWATER": 17479744, "x_coord": -83.000673, "y_coord": 33.270451 }, "geometry": { "type": "Point", "coordinates": [ -83.000672587713964, 33.270451371488626 ] } },
{ "type": "Feature", "properties": { "STATEFP": "13", "COUNTYFP": "149", "COUNTYNS": "00347067", "AFFGEOID": "0500000US13149", "GEOID": "13149", "NAME": "Heard", "LSAD": "06", "ALAND": 766640654, "AWATER": 13190449, "x_coord": -85.128336, "y_coord": 33.297039 }, "geometry": { "type": "Point", "coordinates": [ -85.128336082273819, 33.297039418497206 ] } },
{ "type": "Feature", "properties": { "STATEFP": "13", "COUNTYFP": "179", "COUNTYNS": "00357095", "AFFGEOID": "0500000US13179", "GEOID": "13179", "NAME": "Liberty", "LSAD": "06", "ALAND": 1337652375, "AWATER": 222886508, "x_coord": -81.49473, "y_coord": 31.82809 }, "geometry": { "type": "Point", "coordinates": [ -81.494729570635101, 31.828090427968995 ] } },
{ "type": "Feature", "properties": { "STATEFP": "13", "COUNTYFP": "183", "COUNTYNS": "00326719", "AFFGEOID": "0500000US13183", "GEOID": "13183", "NAME": "Long", "LSAD": "06", "ALAND": 1037013502, "AWATER": 8855056, "x_coord": -81.745695, "y_coord": 31.752555 }, "geometry": { "type": "Point", "coordinates": [ -81.745695168671816, 31.752555201377305 ] } },
{ "type": "Feature", "properties": { "STATEFP": "13", "COUNTYFP": "189", "COUNTYNS": "00348794", "AFFGEOID": "0500000US13189", "GEOID": "13189", "NAME": "McDuffie", "LSAD": "06", "ALAND": 666848710, "AWATER": 23114025, "x_coord": -82.481367, "y_coord": 33.482862 }, "geometry": { "type": "Point", "coordinates": [ -82.481366615045431, 33.482861639790947 ] } },
{ "type": "Feature", "properties": { "STATEFP": "13", "COUNTYFP": "209", "COUNTYNS": "00352276", "AFFGEOID": "0500000US13209", "GEOID": "13209", "NAME": "Montgomery", "LSAD": "06", "ALAND": 624563060, "AWATER": 9191488, "x_coord": -82.534774, "y_coord": 32.173394 }, "geometry": { "type": "Point", "coordinates": [ -82.534773578331937, 32.173393679756039 ] } },
{ "type": "Feature", "properties": { "STATEFP": "13", "COUNTYFP": "229", "COUNTYNS": "00349086", "AFFGEOID": "0500000US13229", "GEOID": "13229", "NAME": "Pierce", "LSAD": "06", "ALAND": 881758989, "AWATER": 7202170, "x_coord": -82.212763, "y_coord": 31.35877 }, "geometry": { "type": "Point", "coordinates": [ -82.212762811129593, 31.358769606864804 ] } },
{ "type": "Feature", "properties": { "STATEFP": "13", "COUNTYFP": "267", "COUNTYNS": "00347445", "AFFGEOID": "0500000US13267", "GEOID": "13267", "NAME": "Tattnall", "LSAD": "06", "ALAND": 1245318484, "AWATER": 19498437, "x_coord": -82.058129, "y_coord": 32.045798 }, "geometry": { "type": "Point", "coordinates": [ -82.05812943063313, 32.045797654832924 ] } },
{ "type": "Feature", "properties": { "STATEFP": "13", "COUNTYFP": "271", "COUNTYNS": "00356958", "AFFGEOID": "0500000US13271", "GEOID": "13271", "NAME": "Telfair", "LSAD": "06", "ALAND": 1132621097, "AWATER": 17356399, "x_coord": -82.939011, "y_coord": 31.929806 }, "geometry": { "type": "Point", "coordinates": [ -82.939011373081939, 31.929805870155366 ] } },
{ "type": "Feature", "properties": { "STATEFP": "13", "COUNTYFP": "291", "COUNTYNS": "00353193", "AFFGEOID": "0500000US13291", "GEOID": "13291", "NAME": "Union", "LSAD": "06", "ALAND": 834197336, "AWATER": 18082752, "x_coord": -83.990717, "y_coord": 34.834087 }, "geometry": { "type": "Point", "coordinates": [ -83.99071662776926, 34.834087349876455 ] } },
{ "type": "Feature", "properties": { "STATEFP": "13", "COUNTYFP": "305", "COUNTYNS": "00350608", "AFFGEOID": "0500000US13305", "GEOID": "13305", "NAME": "Wayne", "LSAD": "06", "ALAND": 1662610320, "AWATER": 17766411, "x_coord": -81.916725, "y_coord": 31.551448 }, "geometry": { "type": "Point", "coordinates": [ -81.916724908428748, 31.551447524552817 ] } },
{ "type": "Feature", "properties": { "STATEFP": "13", "COUNTYFP": "319", "COUNTYNS": "00346824", "AFFGEOID": "0500000US13319", "GEOID": "13319", "NAME": "Wilkinson", "LSAD": "06", "ALAND": 1163459874, "AWATER": 7084800, "x_coord": -83.171238, "y_coord": 32.802382 }, "geometry": { "type": "Point", "coordinates": [ -83.17123807562939, 32.802381924660232 ] } },
{ "type": "Feature", "properties": { "STATEFP": "15", "COUNTYFP": "007", "COUNTYNS": "00365282", "AFFGEOID": "0500000US15007", "GEOID": "15007", "NAME": "Kauai", "LSAD": "06", "ALAND": 1605492325, "AWATER": 1674244229, "x_coord": -159.596349, "y_coord": 22.039625 }, "geometry": { "type": "Point", "coordinates": [ -159.596348782204274, 22.039625367986734 ] } },
{ "type": "Feature", "properties": { "STATEFP": "16", "COUNTYFP": "015", "COUNTYNS": "00395157", "AFFGEOID": "0500000US16015", "GEOID": "16015", "NAME": "Boise", "LSAD": "06", "ALAND": 4919826454, "AWATER": 19104286, "x_coord": -115.730363, "y_coord": 43.98913 }, "geometry": { "type": "Point", "coordinates": [ -115.730363190795273, 43.989130167670659 ] } },
{ "type": "Feature", "properties": { "STATEFP": "16", "COUNTYFP": "023", "COUNTYNS": "00401703", "AFFGEOID": "0500000US16023", "GEOID": "16023", "NAME": "Butte", "LSAD": "06", "ALAND": 5792473995, "AWATER": 5259978, "x_coord": -113.172067, "y_coord": 43.722912 }, "geometry": { "type": "Point", "coordinates": [ -113.172067372029673, 43.722912187026601 ] } },
{ "type": "Feature", "properties": { "STATEFP": "16", "COUNTYFP": "025", "COUNTYNS": "00399408", "AFFGEOID": "0500000US16025", "GEOID": "16025", "NAME": "Camas", "LSAD": "06", "ALAND": 2782253888, "AWATER": 11548054, "x_coord": -114.805767, "y_coord": 43.463329 }, "geometry": { "type": "Point", "coordinates": [ -114.805767397926928, 43.463329368952074 ] } },
{ "type": "Feature", "properties": { "STATEFP": "16", "COUNTYFP": "027", "COUNTYNS": "00399406", "AFFGEOID": "0500000US16027", "GEOID": "16027", "NAME": "Canyon", "LSAD": "06", "ALAND": 1520436972, "AWATER": 43132337, "x_coord": -116.709313, "y_coord": 43.625137 }, "geometry": { "type": "Point", "coordinates": [ -116.709312589036998, 43.625136865544569 ] } },
{ "type": "Feature", "properties": { "STATEFP": "16", "COUNTYFP": "037", "COUNTYNS": "00399758", "AFFGEOID": "0500000US16037", "GEOID": "16037", "NAME": "Custer", "LSAD": "06", "ALAND": 12748378759, "AWATER": 42527192, "x_coord": -114.281728, "y_coord": 44.241126 }, "geometry": { "type": "Point", "coordinates": [ -114.281728097517984, 44.241125905969469 ] } },
{ "type": "Feature", "properties": { "STATEFP": "16", "COUNTYFP": "039", "COUNTYNS": "00400252", "AFFGEOID": "0500000US16039", "GEOID": "16039", "NAME": "Elmore", "LSAD": "06", "ALAND": 7964417369, "AWATER": 68330393, "x_coord": -115.469297, "y_coord": 43.353955 }, "geometry": { "type": "Point", "coordinates": [ -115.469297196622406, 43.353955143058599 ] } },
{ "type": "Feature", "properties": { "STATEFP": "16", "COUNTYFP": "043", "COUNTYNS": "00395408", "AFFGEOID": "0500000US16043", "GEOID": "16043", "NAME": "Fremont", "LSAD": "06", "ALAND": 4827633119, "AWATER": 83440653, "x_coord": -111.48194, "y_coord": 44.228792 }, "geometry": { "type": "Point", "coordinates": [ -111.48194033762104, 44.22879172803195 ] } },
{ "type": "Feature", "properties": { "STATEFP": "16", "COUNTYFP": "061", "COUNTYNS": "00395622", "AFFGEOID": "0500000US16061", "GEOID": "16061", "NAME": "Lewis", "LSAD": "06", "ALAND": 1240141958, "AWATER": 2340247, "x_coord": -116.426315, "y_coord": 46.237001 }, "geometry": { "type": "Point", "coordinates": [ -116.426315059243194, 46.23700097112205 ] } },
{ "type": "Feature", "properties": { "STATEFP": "16", "COUNTYFP": "063", "COUNTYNS": "00395624", "AFFGEOID": "0500000US16063", "GEOID": "16063", "NAME": "Lincoln", "LSAD": "06", "ALAND": 3111517520, "AWATER": 11588561, "x_coord": -114.138274, "y_coord": 43.002373 }, "geometry": { "type": "Point", "coordinates": [ -114.138273903488638, 43.00237269629249 ] } },
{ "type": "Feature", "properties": { "STATEFP": "16", "COUNTYFP": "085", "COUNTYNS": "00399756", "AFFGEOID": "0500000US16085", "GEOID": "16085", "NAME": "Valley", "LSAD": "06", "ALAND": 9492607314, "AWATER": 177116417, "x_coord": -115.566337, "y_coord": 44.766607 }, "geometry": { "type": "Point", "coordinates": [ -115.566337404203381, 44.766607057056554 ] } },
{ "type": "Feature", "properties": { "STATEFP": "19", "COUNTYFP": "175", "COUNTYNS": "00465276", "AFFGEOID": "0500000US19175", "GEOID": "19175", "NAME": "Union", "LSAD": "06", "ALAND": 1097235806, "AWATER": 5575853, "x_coord": -94.242349, "y_coord": 41.027728 }, "geometry": { "type": "Point", "coordinates": [ -94.242348829583989, 41.027728022295626 ] } },
{ "type": "Feature", "properties": { "STATEFP": "20", "COUNTYFP": "053", "COUNTYNS": "00484996", "AFFGEOID": "0500000US20053", "GEOID": "20053", "NAME": "Ellsworth", "LSAD": "06", "ALAND": 1853331063, "AWATER": 19969761, "x_coord": -98.20476, "y_coord": 38.696639 }, "geometry": { "type": "Point", "coordinates": [ -98.204760480740106, 38.696638533984391 ] } },
{ "type": "Feature", "properties": { "STATEFP": "20", "COUNTYFP": "095", "COUNTYNS": "00485012", "AFFGEOID": "0500000US20095", "GEOID": "20095", "NAME": "Kingman", "LSAD": "06", "ALAND": 2236100137, "AWATER": 8536908, "x_coord": -98.136336, "y_coord": 37.558898 }, "geometry": { "type": "Point", "coordinates": [ -98.13633586716962, 37.558898379636325 ] } },
{ "type": "Feature", "properties": { "STATEFP": "20", "COUNTYFP": "135", "COUNTYNS": "00485031", "AFFGEOID": "0500000US20135", "GEOID": "20135", "NAME": "Ness", "LSAD": "06", "ALAND": 2783562240, "AWATER": 667491, "x_coord": -99.916153, "y_coord": 38.479428 }, "geometry": { "type": "Point", "coordinates": [ -99.91615277277775, 38.479428410406477 ] } },
{ "type": "Feature", "properties": { "STATEFP": "20", "COUNTYFP": "199", "COUNTYNS": "00485060", "AFFGEOID": "0500000US20199", "GEOID": "20199", "NAME": "Wallace", "LSAD": "06", "ALAND": 2366348284, "AWATER": 140936, "x_coord": -101.763616, "y_coord": 38.916681 }, "geometry": { "type": "Point", "coordinates": [ -101.763615972569269, 38.91668120793139 ] } },
{ "type": "Feature", "properties": { "STATEFP": "48", "COUNTYFP": "011", "COUNTYNS": "01383791", "AFFGEOID": "0500000US48011", "GEOID": "48011", "NAME": "Armstrong", "LSAD": "06", "ALAND": 2354581675, "AWATER": 12219583, "x_coord": -101.357384, "y_coord": 34.964943 }, "geometry": { "type": "Point", "coordinates": [ -101.357383910207957, 34.964942917165388 ] } },
{ "type": "Feature", "properties": { "STATEFP": "48", "COUNTYFP": "025", "COUNTYNS": "01383798", "AFFGEOID": "0500000US48025", "GEOID": "48025", "NAME": "Bee", "LSAD": "06", "ALAND": 2279809496, "AWATER": 246409, "x_coord": -97.741167, "y_coord": 28.417371 }, "geometry": { "type": "Point", "coordinates": [ -97.741166656827886, 28.417371486877244 ] } },
{ "type": "Feature", "properties": { "STATEFP": "48", "COUNTYFP": "035", "COUNTYNS": "01383803", "AFFGEOID": "0500000US48035", "GEOID": "48035", "NAME": "Bosque", "LSAD": "06", "ALAND": 2545908079, "AWATER": 50666115, "x_coord": -97.634336, "y_coord": 31.900385 }, "geometry": { "type": "Point", "coordinates": [ -97.634336185417794, 31.900384903922497 ] } },
{ "type": "Feature", "properties": { "STATEFP": "48", "COUNTYFP": "053", "COUNTYNS": "01383812", "AFFGEOID": "0500000US48053", "GEOID": "48053", "NAME": "Burnet", "LSAD": "06", "ALAND": 2575134223, "AWATER": 69922923, "x_coord": -98.182447, "y_coord": 30.788341 }, "geometry": { "type": "Point", "coordinates": [ -98.182446675103023, 30.788340885510944 ] } },
{ "type": "Feature", "properties": { "STATEFP": "48", "COUNTYFP": "055", "COUNTYNS": "01383813", "AFFGEOID": "0500000US48055", "GEOID": "48055", "NAME": "Caldwell", "LSAD": "06", "ALAND": 1412150551, "AWATER": 4973307, "x_coord": -97.619994, "y_coord": 29.837092 }, "geometry": { "type": "Point", "coordinates": [ -97.619994333831016, 29.837092249941968 ] } },
{ "type": "Feature", "properties": { "STATEFP": "48", "COUNTYFP": "083", "COUNTYNS": "01383827", "AFFGEOID": "0500000US48083", "GEOID": "48083", "NAME": "Coleman", "LSAD": "06", "ALAND": 3270933224, "AWATER": 47963343, "x_coord": -99.453634, "y_coord": 31.773207 }, "geometry": { "type": "Point", "coordinates": [ -99.453634247283347, 31.773207271519777 ] } },
{ "type": "Feature", "properties": { "STATEFP": "29", "COUNTYFP": "057", "COUNTYNS": "00758483", "AFFGEOID": "0500000US29057", "GEOID": "29057", "NAME": "Dade", "LSAD": "06", "ALAND": 1269121009, "AWATER": 42072595, "x_coord": -93.850269, "y_coord": 37.432065 }, "geometry": { "type": "Point", "coordinates": [ -93.85026948379074, 37.432064609191094 ] } },
{ "type": "Feature", "properties": { "STATEFP": "29", "COUNTYFP": "143", "COUNTYNS": "00758526", "AFFGEOID": "0500000US29143", "GEOID": "29143", "NAME": "New Madrid", "LSAD": "06", "ALAND": 1747868662, "AWATER": 56238249, "x_coord": -89.651741, "y_coord": 36.594591 }, "geometry": { "type": "Point", "coordinates": [ -89.651741110827004, 36.59459088435144 ] } },
{ "type": "Feature", "properties": { "STATEFP": "29", "COUNTYFP": "157", "COUNTYNS": "00758533", "AFFGEOID": "0500000US29157", "GEOID": "29157", "NAME": "Perry", "LSAD": "06", "ALAND": 1228574133, "AWATER": 25394865, "x_coord": -89.824442, "y_coord": 37.707158 }, "geometry": { "type": "Point", "coordinates": [ -89.824442421089273, 37.707158314698809 ] } },
{ "type": "Feature", "properties": { "STATEFP": "29", "COUNTYFP": "189", "COUNTYNS": "00758549", "AFFGEOID": "0500000US29189", "GEOID": "29189", "NAME": "St. Louis", "LSAD": "06", "ALAND": 1314228662, "AWATER": 40161918, "x_coord": -90.443347, "y_coord": 38.640535 }, "geometry": { "type": "Point", "coordinates": [ -90.443347136866606, 38.6405352418628 ] } },
{ "type": "Feature", "properties": { "STATEFP": "29", "COUNTYFP": "199", "COUNTYNS": "00758552", "AFFGEOID": "0500000US29199", "GEOID": "29199", "NAME": "Scotland", "LSAD": "06", "ALAND": 1130548364, "AWATER": 7217862, "x_coord": -92.147027, "y_coord": 40.452591 }, "geometry": { "type": "Point", "coordinates": [ -92.14702659066657, 40.452590969877654 ] } },
{ "type": "Feature", "properties": { "STATEFP": "29", "COUNTYFP": "207", "COUNTYNS": "00758556", "AFFGEOID": "0500000US29207", "GEOID": "29207", "NAME": "Stoddard", "LSAD": "06", "ALAND": 2132122569, "AWATER": 15033642, "x_coord": -89.944306, "y_coord": 36.855599 }, "geometry": { "type": "Point", "coordinates": [ -89.944305517444135, 36.855598754744086 ] } },
{ "type": "Feature", "properties": { "STATEFP": "30", "COUNTYFP": "015", "COUNTYNS": "01719619", "AFFGEOID": "0500000US30015", "GEOID": "30015", "NAME": "Chouteau", "LSAD": "06", "ALAND": 10288824959, "AWATER": 62565299, "x_coord": -110.435265, "y_coord": 47.880592 }, "geometry": { "type": "Point", "coordinates": [ -110.435265087865446, 47.880592345957268 ] } },
{ "type": "Feature", "properties": { "STATEFP": "30", "COUNTYFP": "023", "COUNTYNS": "01719617", "AFFGEOID": "0500000US30023", "GEOID": "30023", "NAME": "Deer Lodge", "LSAD": "06", "ALAND": 1907999322, "AWATER": 12199471, "x_coord": -113.067925, "y_coord": 46.060731 }, "geometry": { "type": "Point", "coordinates": [ -113.067924608572753, 46.06073087131945 ] } },
{ "type": "Feature", "properties": { "STATEFP": "30", "COUNTYFP": "029", "COUNTYNS": "01719611", "AFFGEOID": "0500000US30029", "GEOID": "30029", "NAME": "Flathead", "LSAD": "06", "ALAND": 13175685558, "AWATER": 437273933, "x_coord": -114.04967, "y_coord": 48.295146 }, "geometry": { "type": "Point", "coordinates": [ -114.049669787207691, 48.295146401737561 ] } },
{ "type": "Feature", "properties": { "STATEFP": "30", "COUNTYFP": "039", "COUNTYNS": "01719605", "AFFGEOID": "0500000US30039", "GEOID": "30039", "NAME": "Granite", "LSAD": "06", "ALAND": 4473328973, "AWATER": 14546368, "x_coord": -113.440362, "y_coord": 46.404486 }, "geometry": { "type": "Point", "coordinates": [ -113.44036224565744, 46.404486026434874 ] } },
{ "type": "Feature", "properties": { "STATEFP": "30", "COUNTYFP": "057", "COUNTYNS": "01720033", "AFFGEOID": "0500000US30057", "GEOID": "30057", "NAME": "Madison", "LSAD": "06", "ALAND": 9293284845, "AWATER": 39845975, "x_coord": -111.920276, "y_coord": 45.300696 }, "geometry": { "type": "Point", "coordinates": [ -111.920276163072643, 45.300695726498695 ] } },
{ "type": "Feature", "properties": { "STATEFP": "30", "COUNTYFP": "071", "COUNTYNS": "01720023", "AFFGEOID": "0500000US30071", "GEOID": "30071", "NAME": "Phillips", "LSAD": "06", "ALAND": 13313777229, "AWATER": 185493126, "x_coord": -107.913252, "y_coord": 48.259186 }, "geometry": { "type": "Point", "coordinates": [ -107.913252434459878, 48.259186293043264 ] } },
{ "type": "Feature", "properties": { "STATEFP": "30", "COUNTYFP": "077", "COUNTYNS": "01720021", "AFFGEOID": "0500000US30077", "GEOID": "30077", "NAME": "Powell", "LSAD": "06", "ALAND": 6024421096, "AWATER": 16247901, "x_coord": -112.936109, "y_coord": 46.856351 }, "geometry": { "type": "Point", "coordinates": [ -112.936109443518816, 46.856351002344645 ] } },
{ "type": "Feature", "properties": { "STATEFP": "30", "COUNTYFP": "085", "COUNTYNS": "01669428", "AFFGEOID": "0500000US30085", "GEOID": "30085", "NAME": "Roosevelt", "LSAD": "06", "ALAND": 6097641904, "AWATER": 38581365, "x_coord": -105.016408, "y_coord": 48.294507 }, "geometry": { "type": "Point", "coordinates": [ -105.016407580491688, 48.294507282333853 ] } },
{ "type": "Feature", "properties": { "STATEFP": "30", "COUNTYFP": "087", "COUNTYNS": "01716795", "AFFGEOID": "0500000US30087", "GEOID": "30087", "NAME": "Rosebud", "LSAD": "06", "ALAND": 12971010170, "AWATER": 44234236, "x_coord": -106.730705, "y_coord": 46.229701 }, "geometry": { "type": "Point", "coordinates": [ -106.730705297420982, 46.229701469071195 ] } },
{ "type": "Feature", "properties": { "STATEFP": "30", "COUNTYFP": "105", "COUNTYNS": "01678923", "AFFGEOID": "0500000US30105", "GEOID": "30105", "NAME": "Valley", "LSAD": "06", "ALAND": 12758539637, "AWATER": 351469576, "x_coord": -106.667461, "y_coord": 48.365265 }, "geometry": { "type": "Point", "coordinates": [ -106.667461300149029, 48.365265073656381 ] } },
{ "type": "Feature", "properties": { "STATEFP": "31", "COUNTYFP": "091", "COUNTYNS": "00835867", "AFFGEOID": "0500000US31091", "GEOID": "31091", "NAME": "Hooker", "LSAD": "06", "ALAND": 1867796137, "AWATER": 882994, "x_coord": -101.13532, "y_coord": 41.916066 }, "geometry": { "type": "Point", "coordinates": [ -101.135320153777869, 41.916065673038673 ] } },
{ "type": "Feature", "properties": { "STATEFP": "53", "COUNTYFP": "065", "COUNTYNS": "01531930", "AFFGEOID": "0500000US53065", "GEOID": "53065", "NAME": "Stevens", "LSAD": "06", "ALAND": 6416419681, "AWATER": 163008896, "x_coord": -117.855161, "y_coord": 48.3991 }, "geometry": { "type": "Point", "coordinates": [ -117.855160558960918, 48.399099823819981 ] } },
{ "type": "Feature", "properties": { "STATEFP": "21", "COUNTYFP": "189", "COUNTYNS": "00516941", "AFFGEOID": "0500000US21189", "GEOID": "21189", "NAME": "Owsley", "LSAD": "06", "ALAND": 511282852, "AWATER": 2285942, "x_coord": -83.683097, "y_coord": 37.4192 }, "geometry": { "type": "Point", "coordinates": [ -83.68309732468299, 37.419199638938629 ] } },
{ "type": "Feature", "properties": { "STATEFP": "21", "COUNTYFP": "195", "COUNTYNS": "00516944", "AFFGEOID": "0500000US21195", "GEOID": "21195", "NAME": "Pike", "LSAD": "06", "ALAND": 2037621826, "AWATER": 4756763, "x_coord": -82.395823, "y_coord": 37.46907 }, "geometry": { "type": "Point", "coordinates": [ -82.395823189127, 37.469070400061582 ] } },
{ "type": "Feature", "properties": { "STATEFP": "21", "COUNTYFP": "217", "COUNTYNS": "00516955", "AFFGEOID": "0500000US21217", "GEOID": "21217", "NAME": "Taylor", "LSAD": "06", "ALAND": 689890901, "AWATER": 27072829, "x_coord": -85.327926, "y_coord": 37.366466 }, "geometry": { "type": "Point", "coordinates": [ -85.327926473129253, 37.366465696457873 ] } },
{ "type": "Feature", "properties": { "STATEFP": "21", "COUNTYFP": "237", "COUNTYNS": "00516965", "AFFGEOID": "0500000US21237", "GEOID": "21237", "NAME": "Wolfe", "LSAD": "06", "ALAND": 575419095, "AWATER": 1505159, "x_coord": -83.493166, "y_coord": 37.739319 }, "geometry": { "type": "Point", "coordinates": [ -83.49316615527583, 37.739319225008494 ] } },
{ "type": "Feature", "properties": { "STATEFP": "21", "COUNTYFP": "239", "COUNTYNS": "00516966", "AFFGEOID": "0500000US21239", "GEOID": "21239", "NAME": "Woodford", "LSAD": "06", "ALAND": 492385588, "AWATER": 4933906, "x_coord": -84.743602, "y_coord": 38.042387 }, "geometry": { "type": "Point", "coordinates": [ -84.74360193801229, 38.042386508717485 ] } },
{ "type": "Feature", "properties": { "STATEFP": "22", "COUNTYFP": "001", "COUNTYNS": "00558389", "AFFGEOID": "0500000US22001", "GEOID": "22001", "NAME": "Acadia", "LSAD": "15", "ALAND": 1696880710, "AWATER": 5918557, "x_coord": -92.411984, "y_coord": 30.290536 }, "geometry": { "type": "Point", "coordinates": [ -92.411984145580675, 30.290536480532658 ] } },
{ "type": "Feature", "properties": { "STATEFP": "22", "COUNTYFP": "009", "COUNTYNS": "00558424", "AFFGEOID": "0500000US22009", "GEOID": "22009", "NAME": "Avoyelles", "LSAD": "15", "ALAND": 2154960192, "AWATER": 87260913, "x_coord": -92.001386, "y_coord": 31.076238 }, "geometry": { "type": "Point", "coordinates": [ -92.001385675990505, 31.076237716704689 ] } },
{ "type": "Feature", "properties": { "STATEFP": "22", "COUNTYFP": "011", "COUNTYNS": "00558436", "AFFGEOID": "0500000US22011", "GEOID": "22011", "NAME": "Beauregard", "LSAD": "15", "ALAND": 2997555226, "AWATER": 21945878, "x_coord": -93.343369, "y_coord": 30.648459 }, "geometry": { "type": "Point", "coordinates": [ -93.343368552429055, 30.648458659038987 ] } },
{ "type": "Feature", "properties": { "STATEFP": "22", "COUNTYFP": "029", "COUNTYNS": "00558515", "AFFGEOID": "0500000US22029", "GEOID": "22029", "NAME": "Concordia", "LSAD": "15", "ALAND": 1805172278, "AWATER": 130329989, "x_coord": -91.64007, "y_coord": 31.445856 }, "geometry": { "type": "Point", "coordinates": [ -91.64006957891732, 31.445855758864553 ] } },
{ "type": "Feature", "properties": { "STATEFP": "22", "COUNTYFP": "031", "COUNTYNS": "00558521", "AFFGEOID": "0500000US22031", "GEOID": "22031", "NAME": "De Soto", "LSAD": "15", "ALAND": 2269875385, "AWATER": 47052491, "x_coord": -93.737246, "y_coord": 32.055435 }, "geometry": { "type": "Point", "coordinates": [ -93.737246159637806, 32.055435349292502 ] } },
{ "type": "Feature", "properties": { "STATEFP": "22", "COUNTYFP": "033", "COUNTYNS": "00558530", "AFFGEOID": "0500000US22033", "GEOID": "22033", "NAME": "East Baton Rouge", "LSAD": "15", "ALAND": 1179330896, "AWATER": 38571931, "x_coord": -91.095603, "y_coord": 30.538251 }, "geometry": { "type": "Point", "coordinates": [ -91.095603154661362, 30.538251256348961 ] } },
{ "type": "Feature", "properties": { "STATEFP": "22", "COUNTYFP": "047", "COUNTYNS": "00558582", "AFFGEOID": "0500000US22047", "GEOID": "22047", "NAME": "Iberville", "LSAD": "15", "ALAND": 1602243610, "AWATER": 88655983, "x_coord": -91.349338, "y_coord": 30.25849 }, "geometry": { "type": "Point", "coordinates": [ -91.34933844106898, 30.258489962809914 ] } },
{ "type": "Feature", "properties": { "STATEFP": "22", "COUNTYFP": "071", "COUNTYNS": "00558113", "AFFGEOID": "0500000US22071", "GEOID": "22071", "NAME": "Orleans", "LSAD": "15", "ALAND": 438820361, "AWATER": 467278772, "x_coord": -89.928832, "y_coord": 30.068686 }, "geometry": { "type": "Point", "coordinates": [ -89.928831667483195, 30.068686200574337 ] } },
{ "type": "Feature", "properties": { "STATEFP": "22", "COUNTYFP": "081", "COUNTYNS": "00559472", "AFFGEOID": "0500000US22081", "GEOID": "22081", "NAME": "Red River", "LSAD": "15", "ALAND": 1007742988, "AWATER": 34323733, "x_coord": -93.339865, "y_coord": 32.093133 }, "geometry": { "type": "Point", "coordinates": [ -93.339865424074333, 32.093132954929622 ] } },
{ "type": "Feature", "properties": { "STATEFP": "22", "COUNTYFP": "099", "COUNTYNS": "01629486", "AFFGEOID": "0500000US22099", "GEOID": "22099", "NAME": "St. Martin", "LSAD": "15", "ALAND": 1909381808, "AWATER": 205314116, "x_coord": -91.608303, "y_coord": 30.129089 }, "geometry": { "type": "Point", "coordinates": [ -91.608303337198336, 30.129089210862404 ] } },
{ "type": "Feature", "properties": { "STATEFP": "22", "COUNTYFP": "119", "COUNTYNS": "00559567", "AFFGEOID": "0500000US22119", "GEOID": "22119", "NAME": "Webster", "LSAD": "15", "ALAND": 1536337101, "AWATER": 56090612, "x_coord": -93.334974, "y_coord": 32.713469 }, "geometry": { "type": "Point", "coordinates": [ -93.334974082382118, 32.713469494696518 ] } },
{ "type": "Feature", "properties": { "STATEFP": "23", "COUNTYFP": "013", "COUNTYNS": "00581292", "AFFGEOID": "0500000US23013", "GEOID": "23013", "NAME": "Knox", "LSAD": "06", "ALAND": 945684684, "AWATER": 2017116243, "x_coord": -69.168569, "y_coord": 44.141042 }, "geometry": { "type": "Point", "coordinates": [ -69.168569308821532, 44.141042393209794 ] } },
{ "type": "Feature", "properties": { "STATEFP": "23", "COUNTYFP": "015", "COUNTYNS": "00581293", "AFFGEOID": "0500000US23015", "GEOID": "23015", "NAME": "Lincoln", "LSAD": "06", "ALAND": 1180688991, "AWATER": 631299424, "x_coord": -69.543505, "y_coord": 44.066383 }, "geometry": { "type": "Point", "coordinates": [ -69.543504674754189, 44.06638252607712 ] } },
{ "type": "Feature", "properties": { "STATEFP": "24", "COUNTYFP": "003", "COUNTYNS": "01710958", "AFFGEOID": "0500000US24003", "GEOID": "24003", "NAME": "Anne Arundel", "LSAD": "06", "ALAND": 1074287145, "AWATER": 448099595, "x_coord": -76.605068, "y_coord": 39.006463 }, "geometry": { "type": "Point", "coordinates": [ -76.605068381219098, 39.006462795212506 ] } },
{ "type": "Feature", "properties": { "STATEFP": "18", "COUNTYFP": "103", "COUNTYNS": "00450373", "AFFGEOID": "0500000US18103", "GEOID": "18103", "NAME": "Miami", "LSAD": "06", "ALAND": 968246949, "AWATER": 9184624, "x_coord": -86.04505, "y_coord": 40.769456 }, "geometry": { "type": "Point", "coordinates": [ -86.045049733752862, 40.769456371656574 ] } },
{ "type": "Feature", "properties": { "STATEFP": "18", "COUNTYFP": "129", "COUNTYNS": "00450383", "AFFGEOID": "0500000US18129", "GEOID": "18129", "NAME": "Posey", "LSAD": "06", "ALAND": 1060267353, "AWATER": 25779827, "x_coord": -87.86846, "y_coord": 38.021818 }, "geometry": { "type": "Point", "coordinates": [ -87.868459611083395, 38.021817931725472 ] } },
{ "type": "Feature", "properties": { "STATEFP": "18", "COUNTYFP": "147", "COUNTYNS": "00450388", "AFFGEOID": "0500000US18147", "GEOID": "18147", "NAME": "Spencer", "LSAD": "06", "ALAND": 1027623721, "AWATER": 12065857, "x_coord": -87.00767, "y_coord": 38.014096 }, "geometry": { "type": "Point", "coordinates": [ -87.00766950958706, 38.014096395973027 ] } },
{ "type": "Feature", "properties": { "STATEFP": "19", "COUNTYFP": "001", "COUNTYNS": "00465190", "AFFGEOID": "0500000US19001", "GEOID": "19001", "NAME": "Adair", "LSAD": "06", "ALAND": 1474404193, "AWATER": 2597996, "x_coord": -94.470966, "y_coord": 41.33074 }, "geometry": { "type": "Point", "coordinates": [ -94.470966405458796, 41.33074048993052 ] } },
{ "type": "Feature", "properties": { "STATEFP": "19", "COUNTYFP": "045", "COUNTYNS": "00465211", "AFFGEOID": "0500000US19045", "GEOID": "19045", "NAME": "Clinton", "LSAD": "06", "ALAND": 1799818638, "AWATER": 39526958, "x_coord": -90.531966, "y_coord": 41.898029 }, "geometry": { "type": "Point", "coordinates": [ -90.531965634277213, 41.898028676092295 ] } },
{ "type": "Feature", "properties": { "STATEFP": "19", "COUNTYFP": "083", "COUNTYNS": "00465230", "AFFGEOID": "0500000US19083", "GEOID": "19083", "NAME": "Hardin", "LSAD": "06", "ALAND": 1474505075, "AWATER": 1776735, "x_coord": -93.240398, "y_coord": 42.383874 }, "geometry": { "type": "Point", "coordinates": [ -93.240397542190522, 42.38387388014678 ] } },
{ "type": "Feature", "properties": { "STATEFP": "19", "COUNTYFP": "111", "COUNTYNS": "00465244", "AFFGEOID": "0500000US19111", "GEOID": "19111", "NAME": "Lee", "LSAD": "06", "ALAND": 1340448548, "AWATER": 55266733, "x_coord": -91.479255, "y_coord": 40.642 }, "geometry": { "type": "Point", "coordinates": [ -91.479254705472954, 40.641999837885393 ] } },
{ "type": "Feature", "properties": { "STATEFP": "31", "COUNTYFP": "167", "COUNTYNS": "00835905", "AFFGEOID": "0500000US31167", "GEOID": "31167", "NAME": "Stanton", "LSAD": "06", "ALAND": 1107500701, "AWATER": 8789497, "x_coord": -97.193912, "y_coord": 41.916935 }, "geometry": { "type": "Point", "coordinates": [ -97.193911963637518, 41.916935309922081 ] } },
{ "type": "Feature", "properties": { "STATEFP": "34", "COUNTYFP": "003", "COUNTYNS": "00882271", "AFFGEOID": "0500000US34003", "GEOID": "34003", "NAME": "Bergen", "LSAD": "06", "ALAND": 602910975, "AWATER": 35355101, "x_coord": -74.074231, "y_coord": 40.959622 }, "geometry": { "type": "Point", "coordinates": [ -74.074230812514799, 40.959622415306917 ] } },
{ "type": "Feature", "properties": { "STATEFP": "34", "COUNTYFP": "007", "COUNTYNS": "00882273", "AFFGEOID": "0500000US34007", "GEOID": "34007", "NAME": "Camden", "LSAD": "06", "ALAND": 573295201, "AWATER": 15719274, "x_coord": -74.959729, "y_coord": 39.80351 }, "geometry": { "type": "Point", "coordinates": [ -74.959728859813566, 39.803509898100394 ] } },
{ "type": "Feature", "properties": { "STATEFP": "34", "COUNTYFP": "013", "COUNTYNS": "00882276", "AFFGEOID": "0500000US34013", "GEOID": "34013", "NAME": "Essex", "LSAD": "06", "ALAND": 326557460, "AWATER": 8638172, "x_coord": -74.24705, "y_coord": 40.787227 }, "geometry": { "type": "Point", "coordinates": [ -74.247049746249004, 40.787226956072786 ] } },
{ "type": "Feature", "properties": { "STATEFP": "34", "COUNTYFP": "023", "COUNTYNS": "00882230", "AFFGEOID": "0500000US34023", "GEOID": "34023", "NAME": "Middlesex", "LSAD": "06", "ALAND": 800871212, "AWATER": 35459038, "x_coord": -74.411703, "y_coord": 40.439153 }, "geometry": { "type": "Point", "coordinates": [ -74.411702641407501, 40.439153167662667 ] } },
{ "type": "Feature", "properties": { "STATEFP": "34", "COUNTYFP": "041", "COUNTYNS": "00882237", "AFFGEOID": "0500000US34041", "GEOID": "34041", "NAME": "Warren", "LSAD": "06", "ALAND": 923422762, "AWATER": 15836120, "x_coord": -74.997327, "y_coord": 40.857162 }, "geometry": { "type": "Point", "coordinates": [ -74.997327388498064, 40.85716227662428 ] } },
{ "type": "Feature", "properties": { "STATEFP": "35", "COUNTYFP": "007", "COUNTYNS": "00929117", "AFFGEOID": "0500000US35007", "GEOID": "35007", "NAME": "Colfax", "LSAD": "06", "ALAND": 9733110158, "AWATER": 26299632, "x_coord": -104.64684, "y_coord": 36.606139 }, "geometry": { "type": "Point", "coordinates": [ -104.646840204161975, 36.606138694032254 ] } },
{ "type": "Feature", "properties": { "STATEFP": "35", "COUNTYFP": "011", "COUNTYNS": "00933054", "AFFGEOID": "0500000US35011", "GEOID": "35011", "NAME": "De Baca", "LSAD": "06", "ALAND": 6016819484, "AWATER": 29089486, "x_coord": -104.412023, "y_coord": 34.342452 }, "geometry": { "type": "Point", "coordinates": [ -104.41202331344374, 34.342451870560531 ] } },
{ "type": "Feature", "properties": { "STATEFP": "35", "COUNTYFP": "051", "COUNTYNS": "01702370", "AFFGEOID": "0500000US35051", "GEOID": "35051", "NAME": "Sierra", "LSAD": "06", "ALAND": 10829248375, "AWATER": 147676270, "x_coord": -107.192407, "y_coord": 33.130496 }, "geometry": { "type": "Point", "coordinates": [ -107.192406962421572, 33.130495866748269 ] } },
{ "type": "Feature", "properties": { "STATEFP": "36", "COUNTYFP": "013", "COUNTYNS": "00974105", "AFFGEOID": "0500000US36013", "GEOID": "36013", "NAME": "Chautauqua", "LSAD": "06", "ALAND": 2745967842, "AWATER": 1139487496, "x_coord": -79.366343, "y_coord": 42.228165 }, "geometry": { "type": "Point", "coordinates": [ -79.366342648830482, 42.228164897483843 ] } },
{ "type": "Feature", "properties": { "STATEFP": "36", "COUNTYFP": "029", "COUNTYNS": "00974113", "AFFGEOID": "0500000US36029", "GEOID": "36029", "NAME": "Erie", "LSAD": "06", "ALAND": 2700643194, "AWATER": 476896403, "x_coord": -78.732317, "y_coord": 42.763951 }, "geometry": { "type": "Point", "coordinates": [ -78.732317192451873, 42.763951390199985 ] } },
{ "type": "Feature", "properties": { "STATEFP": "36", "COUNTYFP": "043", "COUNTYNS": "00974120", "AFFGEOID": "0500000US36043", "GEOID": "36043", "NAME": "Herkimer", "LSAD": "06", "ALAND": 3655807440, "AWATER": 120420521, "x_coord": -74.962526, "y_coord": 43.419705 }, "geometry": { "type": "Point", "coordinates": [ -74.96252553618973, 43.419705204712891 ] } },
{ "type": "Feature", "properties": { "STATEFP": "36", "COUNTYFP": "045", "COUNTYNS": "00974121", "AFFGEOID": "0500000US36045", "GEOID": "36045", "NAME": "Jefferson", "LSAD": "06", "ALAND": 3285906470, "AWATER": 1524628784, "x_coord": -75.920979, "y_coord": 44.049442 }, "geometry": { "type": "Point", "coordinates": [ -75.920979410401529, 44.049441810464913 ] } },
{ "type": "Feature", "properties": { "STATEFP": "36", "COUNTYFP": "047", "COUNTYNS": "00974122", "AFFGEOID": "0500000US36047", "GEOID": "36047", "NAME": "Kings", "LSAD": "06", "ALAND": 179671325, "AWATER": 71098973, "x_coord": -73.938527, "y_coord": 40.639541 }, "geometry": { "type": "Point", "coordinates": [ -73.938526800167992, 40.639540670079576 ] } },
{ "type": "Feature", "properties": { "STATEFP": "36", "COUNTYFP": "053", "COUNTYNS": "00974125", "AFFGEOID": "0500000US36053", "GEOID": "36053", "NAME": "Madison", "LSAD": "06", "ALAND": 1696091557, "AWATER": 16670528, "x_coord": -75.669649, "y_coord": 42.912766 }, "geometry": { "type": "Point", "coordinates": [ -75.669648627875816, 42.912765911247661 ] } },
{ "type": "Feature", "properties": { "STATEFP": "36", "COUNTYFP": "065", "COUNTYNS": "00974131", "AFFGEOID": "0500000US36065", "GEOID": "36065", "NAME": "Oneida", "LSAD": "06", "ALAND": 3139921993, "AWATER": 117340435, "x_coord": -75.435851, "y_coord": 43.241736 }, "geometry": { "type": "Point", "coordinates": [ -75.435851090638053, 43.241735857088514 ] } },
{ "type": "Feature", "properties": { "STATEFP": "36", "COUNTYFP": "077", "COUNTYNS": "00974137", "AFFGEOID": "0500000US36077", "GEOID": "36077", "NAME": "Otsego", "LSAD": "06", "ALAND": 2594462122, "AWATER": 36339120, "x_coord": -75.032599, "y_coord": 42.633746 }, "geometry": { "type": "Point", "coordinates": [ -75.032598827315582, 42.633746262863475 ] } },
{ "type": "Feature", "properties": { "STATEFP": "36", "COUNTYFP": "081", "COUNTYNS": "00974139", "AFFGEOID": "0500000US36081", "GEOID": "36081", "NAME": "Queens", "LSAD": "06", "ALAND": 281734474, "AWATER": 179364919, "x_coord": -73.82027, "y_coord": 40.702284 }, "geometry": { "type": "Point", "coordinates": [ -73.820270341831801, 40.702283857648773 ] } },
{ "type": "Feature", "properties": { "STATEFP": "36", "COUNTYFP": "091", "COUNTYNS": "00974143", "AFFGEOID": "0500000US36091", "GEOID": "36091", "NAME": "Saratoga", "LSAD": "06", "ALAND": 2097879149, "AWATER": 87573063, "x_coord": -73.863898, "y_coord": 43.10738 }, "geometry": { "type": "Point", "coordinates": [ -73.863897719255675, 43.10737961972621 ] } },
{ "type": "Feature", "properties": { "STATEFP": "36", "COUNTYFP": "115", "COUNTYNS": "00974155", "AFFGEOID": "0500000US36115", "GEOID": "36115", "NAME": "Washington", "LSAD": "06", "ALAND": 2152713608, "AWATER": 38126958, "x_coord": -73.430752, "y_coord": 43.313713 }, "geometry": { "type": "Point", "coordinates": [ -73.430752139526291, 43.313713048889227 ] } },
{ "type": "Feature", "properties": { "STATEFP": "37", "COUNTYFP": "007", "COUNTYNS": "01008534", "AFFGEOID": "0500000US37007", "GEOID": "37007", "NAME": "Anson", "LSAD": "06", "ALAND": 1376478137, "AWATER": 14603213, "x_coord": -80.102692, "y_coord": 34.973813 }, "geometry": { "type": "Point", "coordinates": [ -80.102691796881786, 34.97381293623333 ] } },
{ "type": "Feature", "properties": { "STATEFP": "37", "COUNTYFP": "027", "COUNTYNS": "01008541", "AFFGEOID": "0500000US37027", "GEOID": "37027", "NAME": "Caldwell", "LSAD": "06", "ALAND": 1222192503, "AWATER": 7038403, "x_coord": -81.546406, "y_coord": 35.953029 }, "geometry": { "type": "Point", "coordinates": [ -81.546405724062055, 35.953028544492177 ] } },
{ "type": "Feature", "properties": { "STATEFP": "37", "COUNTYFP": "039", "COUNTYNS": "01008545", "AFFGEOID": "0500000US37039", "GEOID": "37039", "NAME": "Cherokee", "LSAD": "06", "ALAND": 1179834154, "AWATER": 28824944, "x_coord": -84.063478, "y_coord": 35.133873 }, "geometry": { "type": "Point", "coordinates": [ -84.063478291622829, 35.133872998728513 ] } },
{ "type": "Feature", "properties": { "STATEFP": "37", "COUNTYFP": "049", "COUNTYNS": "01026123", "AFFGEOID": "0500000US37049", "GEOID": "37049", "NAME": "Craven", "LSAD": "06", "ALAND": 1830077186, "AWATER": 172715012, "x_coord": -77.093894, "y_coord": 35.124857 }, "geometry": { "type": "Point", "coordinates": [ -77.09389404831586, 35.124856823462871 ] } },
{ "type": "Feature", "properties": { "STATEFP": "37", "COUNTYFP": "055", "COUNTYNS": "01026133", "AFFGEOID": "0500000US37055", "GEOID": "37055", "NAME": "Dare", "LSAD": "06", "ALAND": 992549370, "AWATER": 3000522458, "x_coord": -75.797994, "y_coord": 35.779537 }, "geometry": { "type": "Point", "coordinates": [ -75.797993950358347, 35.779537285786475 ] } },
{ "type": "Feature", "properties": { "STATEFP": "37", "COUNTYFP": "059", "COUNTYNS": "01008549", "AFFGEOID": "0500000US37059", "GEOID": "37059", "NAME": "Davie", "LSAD": "06", "ALAND": 682967798, "AWATER": 7399101, "x_coord": -80.544473, "y_coord": 35.929111 }, "geometry": { "type": "Point", "coordinates": [ -80.544473395648112, 35.9291113343129 ] } },
{ "type": "Feature", "properties": { "STATEFP": "37", "COUNTYFP": "069", "COUNTYNS": "01008553", "AFFGEOID": "0500000US37069", "GEOID": "37069", "NAME": "Franklin", "LSAD": "06", "ALAND": 1273757057, "AWATER": 7178682, "x_coord": -78.285703, "y_coord": 36.082755 }, "geometry": { "type": "Point", "coordinates": [ -78.285702875924684, 36.082755017600469 ] } },
{ "type": "Feature", "properties": { "STATEFP": "37", "COUNTYFP": "083", "COUNTYNS": "01008559", "AFFGEOID": "0500000US37083", "GEOID": "37083", "NAME": "Halifax", "LSAD": "06", "ALAND": 1874467579, "AWATER": 16925017, "x_coord": -77.651735, "y_coord": 36.257447 }, "geometry": { "type": "Point", "coordinates": [ -77.651734658170952, 36.257446623910205 ] } },
{ "type": "Feature", "properties": { "STATEFP": "37", "COUNTYFP": "091", "COUNTYNS": "01026127", "AFFGEOID": "0500000US37091", "GEOID": "37091", "NAME": "Hertford", "LSAD": "06", "ALAND": 914689326, "AWATER": 18737419, "x_coord": -76.982003, "y_coord": 36.359066 }, "geometry": { "type": "Point", "coordinates": [ -76.982002711203378, 36.359065586938428 ] } },
{ "type": "Feature", "properties": { "STATEFP": "37", "COUNTYFP": "093", "COUNTYNS": "01008563", "AFFGEOID": "0500000US37093", "GEOID": "37093", "NAME": "Hoke", "LSAD": "06", "ALAND": 1010400416, "AWATER": 3957346, "x_coord": -79.237264, "y_coord": 35.017543 }, "geometry": { "type": "Point", "coordinates": [ -79.237263532735497, 35.017543320939637 ] } },
{ "type": "Feature", "properties": { "STATEFP": "37", "COUNTYFP": "099", "COUNTYNS": "01008566", "AFFGEOID": "0500000US37099", "GEOID": "37099", "NAME": "Jackson", "LSAD": "06", "ALAND": 1272183341, "AWATER": 9754291, "x_coord": -83.140827, "y_coord": 35.287536 }, "geometry": { "type": "Point", "coordinates": [ -83.140826877647442, 35.287536046703991 ] } },
{ "type": "Feature", "properties": { "STATEFP": "37", "COUNTYFP": "111", "COUNTYNS": "01025836", "AFFGEOID": "0500000US37111", "GEOID": "37111", "NAME": "McDowell", "LSAD": "06", "ALAND": 1139477527, "AWATER": 13976882, "x_coord": -82.049323, "y_coord": 35.6817 }, "geometry": { "type": "Point", "coordinates": [ -82.049323127493068, 35.681699811945101 ] } },
{ "type": "Feature", "properties": { "STATEFP": "37", "COUNTYFP": "117", "COUNTYNS": "01026328", "AFFGEOID": "0500000US37117", "GEOID": "37117", "NAME": "Martin", "LSAD": "06", "ALAND": 1182135162, "AWATER": 746610, "x_coord": -77.109248, "y_coord": 35.843213 }, "geometry": { "type": "Point", "coordinates": [ -77.109247690364498, 35.843212718512845 ] } },
{ "type": "Feature", "properties": { "STATEFP": "37", "COUNTYFP": "127", "COUNTYNS": "01008574", "AFFGEOID": "0500000US37127", "GEOID": "37127", "NAME": "Nash", "LSAD": "06", "ALAND": 1399739813, "AWATER": 6177826, "x_coord": -77.986433, "y_coord": 35.967251 }, "geometry": { "type": "Point", "coordinates": [ -77.986433257859829, 35.967250949847582 ] } },
{ "type": "Feature", "properties": { "STATEFP": "37", "COUNTYFP": "165", "COUNTYNS": "01008585", "AFFGEOID": "0500000US37165", "GEOID": "37165", "NAME": "Scotland", "LSAD": "06", "ALAND": 826570075, "AWATER": 3841985, "x_coord": -79.480378, "y_coord": 34.840899 }, "geometry": { "type": "Point", "coordinates": [ -79.480377639340674, 34.84089928864632 ] } },
{ "type": "Feature", "properties": { "STATEFP": "37", "COUNTYFP": "175", "COUNTYNS": "01008589", "AFFGEOID": "0500000US37175", "GEOID": "37175", "NAME": "Transylvania", "LSAD": "06", "ALAND": 980141494, "AWATER": 5110139, "x_coord": -82.798208, "y_coord": 35.202141 }, "geometry": { "type": "Point", "coordinates": [ -82.798208295445662, 35.202140881540004 ] } },
{ "type": "Feature", "properties": { "STATEFP": "37", "COUNTYFP": "199", "COUNTYNS": "01008598", "AFFGEOID": "0500000US37199", "GEOID": "37199", "NAME": "Yancey", "LSAD": "06", "ALAND": 809610027, "AWATER": 1524561, "x_coord": -82.307625, "y_coord": 35.898945 }, "geometry": { "type": "Point", "coordinates": [ -82.307624857345601, 35.898944570554889 ] } },
{ "type": "Feature", "properties": { "STATEFP": "38", "COUNTYFP": "017", "COUNTYNS": "01034226", "AFFGEOID": "0500000US38017", "GEOID": "38017", "NAME": "Cass", "LSAD": "06", "ALAND": 4571248512, "AWATER": 7579105, "x_coord": -97.248047, "y_coord": 46.932975 }, "geometry": { "type": "Point", "coordinates": [ -97.248047024631859, 46.932974722078242 ] } },
{ "type": "Feature", "properties": { "STATEFP": "38", "COUNTYFP": "037", "COUNTYNS": "01035300", "AFFGEOID": "0500000US38037", "GEOID": "38037", "NAME": "Grant", "LSAD": "06", "ALAND": 4297180180, "AWATER": 17563260, "x_coord": -101.639714, "y_coord": 46.358287 }, "geometry": { "type": "Point", "coordinates": [ -101.639713836337378, 46.358287493602795 ] } },
{ "type": "Feature", "properties": { "STATEFP": "38", "COUNTYFP": "085", "COUNTYNS": "01034208", "AFFGEOID": "0500000US38085", "GEOID": "38085", "NAME": "Sioux", "LSAD": "06", "ALAND": 2833690982, "AWATER": 88449892, "x_coord": -101.040416, "y_coord": 46.112665 }, "geometry": { "type": "Point", "coordinates": [ -101.04041580278637, 46.112664837691298 ] } },
{ "type": "Feature", "properties": { "STATEFP": "38", "COUNTYFP": "099", "COUNTYNS": "01034214", "AFFGEOID": "0500000US38099", "GEOID": "38099", "NAME": "Walsh", "LSAD": "06", "ALAND": 3319506407, "AWATER": 32184273, "x_coord": -97.721345, "y_coord": 48.369466 }, "geometry": { "type": "Point", "coordinates": [ -97.721344989513014, 48.369465649656327 ] } },
{ "type": "Feature", "properties": { "STATEFP": "39", "COUNTYFP": "035", "COUNTYNS": "01074030", "AFFGEOID": "0500000US39035", "GEOID": "39035", "NAME": "Cuyahoga", "LSAD": "06", "ALAND": 1184103772, "AWATER": 2041800662, "x_coord": -81.658641, "y_coord": 41.424474 }, "geometry": { "type": "Point", "coordinates": [ -81.658640954581514, 41.424474118686007 ] } },
{ "type": "Feature", "properties": { "STATEFP": "39", "COUNTYFP": "039", "COUNTYNS": "01074032", "AFFGEOID": "0500000US39039", "GEOID": "39039", "NAME": "Defiance", "LSAD": "06", "ALAND": 1065649892, "AWATER": 7073997, "x_coord": -84.490475, "y_coord": 41.323916 }, "geometry": { "type": "Point", "coordinates": [ -84.490474942127591, 41.323916416408366 ] } },
{ "type": "Feature", "properties": { "STATEFP": "39", "COUNTYFP": "043", "COUNTYNS": "01074034", "AFFGEOID": "0500000US39043", "GEOID": "39043", "NAME": "Erie", "LSAD": "06", "ALAND": 651214356, "AWATER": 969797598, "x_coord": -82.619238, "y_coord": 41.363248 }, "geometry": { "type": "Point", "coordinates": [ -82.619237561765203, 41.363247860952889 ] } },
{ "type": "Feature", "properties": { "STATEFP": "39", "COUNTYFP": "125", "COUNTYNS": "01074075", "AFFGEOID": "0500000US39125", "GEOID": "39125", "NAME": "Paulding", "LSAD": "06", "ALAND": 1078561240, "AWATER": 6245392, "x_coord": -84.58021, "y_coord": 41.116624 }, "geometry": { "type": "Point", "coordinates": [ -84.580209895911224, 41.116624374337974 ] } },
{ "type": "Feature", "properties": { "STATEFP": "40", "COUNTYFP": "065", "COUNTYNS": "01101820", "AFFGEOID": "0500000US40065", "GEOID": "40065", "NAME": "Jackson", "LSAD": "06", "ALAND": 2078855906, "AWATER": 4114418, "x_coord": -99.414807, "y_coord": 34.587975 }, "geometry": { "type": "Point", "coordinates": [ -99.414807028011097, 34.587975485062344 ] } },
{ "type": "Feature", "properties": { "STATEFP": "48", "COUNTYFP": "103", "COUNTYNS": "01383837", "AFFGEOID": "0500000US48103", "GEOID": "48103", "NAME": "Crane", "LSAD": "06", "ALAND": 2033319700, "AWATER": 1695980, "x_coord": -102.515593, "y_coord": 31.428617 }, "geometry": { "type": "Point", "coordinates": [ -102.515592943309912, 31.428616727415292 ] } },
{ "type": "Feature", "properties": { "STATEFP": "48", "COUNTYFP": "141", "COUNTYNS": "01383855", "AFFGEOID": "0500000US48141", "GEOID": "48141", "NAME": "El Paso", "LSAD": "06", "ALAND": 2624139561, "AWATER": 5451095, "x_coord": -106.234837, "y_coord": 31.768573 }, "geometry": { "type": "Point", "coordinates": [ -106.23483695469325, 31.768573169676955 ] } },
{ "type": "Feature", "properties": { "STATEFP": "48", "COUNTYFP": "151", "COUNTYNS": "01383861", "AFFGEOID": "0500000US48151", "GEOID": "48151", "NAME": "Fisher", "LSAD": "06", "ALAND": 2328272101, "AWATER": 7258480, "x_coord": -100.402187, "y_coord": 32.742813 }, "geometry": { "type": "Point", "coordinates": [ -100.402186557226273, 32.742813202195414 ] } },
{ "type": "Feature", "properties": { "STATEFP": "48", "COUNTYFP": "161", "COUNTYNS": "01383866", "AFFGEOID": "0500000US48161", "GEOID": "48161", "NAME": "Freestone", "LSAD": "06", "ALAND": 2273311881, "AWATER": 36936952, "x_coord": -96.149082, "y_coord": 31.704904 }, "geometry": { "type": "Point", "coordinates": [ -96.149082419978313, 31.704904453484449 ] } },
{ "type": "Feature", "properties": { "STATEFP": "48", "COUNTYFP": "167", "COUNTYNS": "01383869", "AFFGEOID": "0500000US48167", "GEOID": "48167", "NAME": "Galveston", "LSAD": "06", "ALAND": 981441986, "AWATER": 1281681977, "x_coord": -94.962883, "y_coord": 29.393086 }, "geometry": { "type": "Point", "coordinates": [ -94.962883143025621, 29.393086276645203 ] } },
{ "type": "Feature", "properties": { "STATEFP": "48", "COUNTYFP": "199", "COUNTYNS": "01383885", "AFFGEOID": "0500000US48199", "GEOID": "48199", "NAME": "Hardin", "LSAD": "06", "ALAND": 2306610690, "AWATER": 18039522, "x_coord": -94.390213, "y_coord": 30.332383 }, "geometry": { "type": "Point", "coordinates": [ -94.390212679387943, 30.332383183698735 ] } },
{ "type": "Feature", "properties": { "STATEFP": "48", "COUNTYFP": "213", "COUNTYNS": "01383892", "AFFGEOID": "0500000US48213", "GEOID": "48213", "NAME": "Henderson", "LSAD": "06", "ALAND": 2263061592, "AWATER": 193211786, "x_coord": -95.853594, "y_coord": 32.211899 }, "geometry": { "type": "Point", "coordinates": [ -95.853594252781406, 32.211898617697742 ] } },
{ "type": "Feature", "properties": { "STATEFP": "48", "COUNTYFP": "229", "COUNTYNS": "01383900", "AFFGEOID": "0500000US48229", "GEOID": "48229", "NAME": "Hudspeth", "LSAD": "06", "ALAND": 11837605503, "AWATER": 2189943, "x_coord": -105.386468, "y_coord": 31.456234 }, "geometry": { "type": "Point", "coordinates": [ -105.386467538529502, 31.456233728461374 ] } },
{ "type": "Feature", "properties": { "STATEFP": "48", "COUNTYFP": "241", "COUNTYNS": "01383906", "AFFGEOID": "0500000US48241", "GEOID": "48241", "NAME": "Jasper", "LSAD": "06", "ALAND": 2431105370, "AWATER": 80399908, "x_coord": -94.025104, "y_coord": 30.743994 }, "geometry": { "type": "Point", "coordinates": [ -94.025103908919874, 30.743993825113243 ] } },
{ "type": "Feature", "properties": { "STATEFP": "48", "COUNTYFP": "245", "COUNTYNS": "01383908", "AFFGEOID": "0500000US48245", "GEOID": "48245", "NAME": "Jefferson", "LSAD": "06", "ALAND": 2269793029, "AWATER": 611960874, "x_coord": -94.16293, "y_coord": 29.884052 }, "geometry": { "type": "Point", "coordinates": [ -94.162929519207182, 29.884051595583365 ] } },
{ "type": "Feature", "properties": { "STATEFP": "48", "COUNTYFP": "261", "COUNTYNS": "01383916", "AFFGEOID": "0500000US48261", "GEOID": "48261", "NAME": "Kenedy", "LSAD": "06", "ALAND": 3777375654, "AWATER": 1262209502, "x_coord": -97.701736, "y_coord": 26.928545 }, "geometry": { "type": "Point", "coordinates": [ -97.701736232073046, 26.928544869497021 ] } },
{ "type": "Feature", "properties": { "STATEFP": "48", "COUNTYFP": "289", "COUNTYNS": "01383930", "AFFGEOID": "0500000US48289", "GEOID": "48289", "NAME": "Leon", "LSAD": "06", "ALAND": 2779462025, "AWATER": 19328383, "x_coord": -95.995696, "y_coord": 31.296504 }, "geometry": { "type": "Point", "coordinates": [ -95.995696293020686, 31.296503973024368 ] } },
{ "type": "Feature", "properties": { "STATEFP": "48", "COUNTYFP": "317", "COUNTYNS": "01383941", "AFFGEOID": "0500000US48317", "GEOID": "48317", "NAME": "Martin", "LSAD": "06", "ALAND": 2369724590, "AWATER": 1931832, "x_coord": -101.951272, "y_coord": 32.305991 }, "geometry": { "type": "Point", "coordinates": [ -101.951272267870394, 32.305991086674027 ] } },
{ "type": "Feature", "properties": { "STATEFP": "48", "COUNTYFP": "333", "COUNTYNS": "01383952", "AFFGEOID": "0500000US48333", "GEOID": "48333", "NAME": "Mills", "LSAD": "06", "ALAND": 1937867068, "AWATER": 4022957, "x_coord": -98.59544, "y_coord": 31.49519 }, "geometry": { "type": "Point", "coordinates": [ -98.595440373198755, 31.495189501571168 ] } },
{ "type": "Feature", "properties": { "STATEFP": "48", "COUNTYFP": "347", "COUNTYNS": "01383959", "AFFGEOID": "0500000US48347", "GEOID": "48347", "NAME": "Nacogdoches", "LSAD": "06", "ALAND": 2451572357, "AWATER": 89731150, "x_coord": -94.615867, "y_coord": 31.615984 }, "geometry": { "type": "Point", "coordinates": [ -94.615866680214268, 31.615984008078236 ] } },
{ "type": "Feature", "properties": { "STATEFP": "48", "COUNTYFP": "361", "COUNTYNS": "01383966", "AFFGEOID": "0500000US48361", "GEOID": "48361", "NAME": "Orange", "LSAD": "06", "ALAND": 864489137, "AWATER": 118488361, "x_coord": -93.893888, "y_coord": 30.121305 }, "geometry": { "type": "Point", "coordinates": [ -93.893888013704597, 30.121304699874802 ] } },
{ "type": "Feature", "properties": { "STATEFP": "48", "COUNTYFP": "371", "COUNTYNS": "01383971", "AFFGEOID": "0500000US48371", "GEOID": "48371", "NAME": "Pecos", "LSAD": "06", "ALAND": 12338274958, "AWATER": 2532275, "x_coord": -102.72353, "y_coord": 30.78101 }, "geometry": { "type": "Point", "coordinates": [ -102.723530138907591, 30.781010267380051 ] } },
{ "type": "Feature", "properties": { "STATEFP": "48", "COUNTYFP": "395", "COUNTYNS": "01383983", "AFFGEOID": "0500000US48395", "GEOID": "48395", "NAME": "Robertson", "LSAD": "06", "ALAND": 2214719307, "AWATER": 26358041, "x_coord": -96.51279, "y_coord": 31.027054 }, "geometry": { "type": "Point", "coordinates": [ -96.512790267937177, 31.027054026060533 ] } },
{ "type": "Feature", "properties": { "STATEFP": "48", "COUNTYFP": "423", "COUNTYNS": "01383997", "AFFGEOID": "0500000US48423", "GEOID": "48423", "NAME": "Smith", "LSAD": "06", "ALAND": 2386603414, "AWATER": 73164513, "x_coord": -95.269176, "y_coord": 32.37504 }, "geometry": { "type": "Point", "coordinates": [ -95.269176065463284, 32.375039816808922 ] } },
{ "type": "Feature", "properties": { "STATEFP": "48", "COUNTYFP": "427", "COUNTYNS": "01383999", "AFFGEOID": "0500000US48427", "GEOID": "48427", "NAME": "Starr", "LSAD": "06", "ALAND": 3168019238, "AWATER": 15346371, "x_coord": -98.738684, "y_coord": 26.562097 }, "geometry": { "type": "Point", "coordinates": [ -98.738683899753894, 26.562096939253372 ] } },
{ "type": "Feature", "properties": { "STATEFP": "48", "COUNTYFP": "457", "COUNTYNS": "01384014", "AFFGEOID": "0500000US48457", "GEOID": "48457", "NAME": "Tyler", "LSAD": "06", "ALAND": 2394158698, "AWATER": 29093507, "x_coord": -94.3766, "y_coord": 30.771235 }, "geometry": { "type": "Point", "coordinates": [ -94.376599886320804, 30.771235199567339 ] } },
{ "type": "Feature", "properties": { "STATEFP": "48", "COUNTYFP": "471", "COUNTYNS": "01384021", "AFFGEOID": "0500000US48471", "GEOID": "48471", "NAME": "Walker", "LSAD": "06", "ALAND": 2031124895, "AWATER": 44747190, "x_coord": -95.572297, "y_coord": 30.739031 }, "geometry": { "type": "Point", "coordinates": [ -95.572296742049829, 30.739030967466547 ] } },
{ "type": "Feature", "properties": { "STATEFP": "48", "COUNTYFP": "475", "COUNTYNS": "01384023", "AFFGEOID": "0500000US48475", "GEOID": "48475", "NAME": "Ward", "LSAD": "06", "ALAND": 2164201063, "AWATER": 624206, "x_coord": -103.102501, "y_coord": 31.509492 }, "geometry": { "type": "Point", "coordinates": [ -103.10250135517893, 31.509492395902392 ] } },
{ "type": "Feature", "properties": { "STATEFP": "48", "COUNTYFP": "477", "COUNTYNS": "01384024", "AFFGEOID": "0500000US48477", "GEOID": "48477", "NAME": "Washington", "LSAD": "06", "ALAND": 1564829004, "AWATER": 45497797, "x_coord": -96.403441, "y_coord": 30.214524 }, "geometry": { "type": "Point", "coordinates": [ -96.40344082061084, 30.214524187806543 ] } },
{ "type": "Feature", "properties": { "STATEFP": "48", "COUNTYFP": "499", "COUNTYNS": "01384035", "AFFGEOID": "0500000US48499", "GEOID": "48499", "NAME": "Wood", "LSAD": "06", "ALAND": 1671177481, "AWATER": 130725856, "x_coord": -95.382075, "y_coord": 32.786406 }, "geometry": { "type": "Point", "coordinates": [ -95.382075092006289, 32.786405770902114 ] } },
{ "type": "Feature", "properties": { "STATEFP": "49", "COUNTYFP": "001", "COUNTYNS": "01448015", "AFFGEOID": "0500000US49001", "GEOID": "49001", "NAME": "Beaver", "LSAD": "06", "ALAND": 6689681807, "AWATER": 5298466, "x_coord": -113.23552, "y_coord": 38.357001 }, "geometry": { "type": "Point", "coordinates": [ -113.235520303935758, 38.357000680901173 ] } },
{ "type": "Feature", "properties": { "STATEFP": "49", "COUNTYFP": "003", "COUNTYNS": "01455966", "AFFGEOID": "0500000US49003", "GEOID": "49003", "NAME": "Box Elder", "LSAD": "06", "ALAND": 14881016770, "AWATER": 2547651536, "x_coord": -113.08212, "y_coord": 41.521011 }, "geometry": { "type": "Point", "coordinates": [ -113.08212039575163, 41.52101092555889 ] } },
{ "type": "Feature", "properties": { "STATEFP": "49", "COUNTYFP": "011", "COUNTYNS": "01448020", "AFFGEOID": "0500000US49011", "GEOID": "49011", "NAME": "Davis", "LSAD": "06", "ALAND": 774500758, "AWATER": 870693255, "x_coord": -112.111454, "y_coord": 40.990025 }, "geometry": { "type": "Point", "coordinates": [ -112.111453993276484, 40.990024870185458 ] } },
{ "type": "Feature", "properties": { "STATEFP": "40", "COUNTYFP": "073", "COUNTYNS": "01101824", "AFFGEOID": "0500000US40073", "GEOID": "40073", "NAME": "Kingfisher", "LSAD": "06", "ALAND": 2325960388, "AWATER": 20612460, "x_coord": -97.942093, "y_coord": 35.945394 }, "geometry": { "type": "Point", "coordinates": [ -97.942093464110457, 35.945394383800561 ] } },
{ "type": "Feature", "properties": { "STATEFP": "40", "COUNTYFP": "079", "COUNTYNS": "01101827", "AFFGEOID": "0500000US40079", "GEOID": "40079", "NAME": "Le Flore", "LSAD": "06", "ALAND": 4116222818, "AWATER": 50024110, "x_coord": -94.703413, "y_coord": 34.900287 }, "geometry": { "type": "Point", "coordinates": [ -94.703412705030189, 34.900287393201339 ] } },
{ "type": "Feature", "properties": { "STATEFP": "40", "COUNTYFP": "145", "COUNTYNS": "01101860", "AFFGEOID": "0500000US40145", "GEOID": "40145", "NAME": "Wagoner", "LSAD": "06", "ALAND": 1454465392, "AWATER": 75363227, "x_coord": -95.521183, "y_coord": 35.961089 }, "geometry": { "type": "Point", "coordinates": [ -95.521183487698963, 35.961089206084324 ] } },
{ "type": "Feature", "properties": { "STATEFP": "41", "COUNTYFP": "005", "COUNTYNS": "01155127", "AFFGEOID": "0500000US41005", "GEOID": "41005", "NAME": "Clackamas", "LSAD": "06", "ALAND": 4845034547, "AWATER": 31873103, "x_coord": -122.220864, "y_coord": 45.188033 }, "geometry": { "type": "Point", "coordinates": [ -122.220863639385357, 45.188033044784142 ] } },
{ "type": "Feature", "properties": { "STATEFP": "41", "COUNTYFP": "021", "COUNTYNS": "01135850", "AFFGEOID": "0500000US41021", "GEOID": "41021", "NAME": "Gilliam", "LSAD": "06", "ALAND": 3120213943, "AWATER": 46914717, "x_coord": -120.210783, "y_coord": 45.378284 }, "geometry": { "type": "Point", "coordinates": [ -120.210782796791719, 45.378283993283794 ] } },
{ "type": "Feature", "properties": { "STATEFP": "41", "COUNTYFP": "033", "COUNTYNS": "01155133", "AFFGEOID": "0500000US41033", "GEOID": "41033", "NAME": "Josephine", "LSAD": "06", "ALAND": 4244083284, "AWATER": 5629241, "x_coord": -123.555476, "y_coord": 42.365475 }, "geometry": { "type": "Point", "coordinates": [ -123.555476210706459, 42.365474631607825 ] } },
{ "type": "Feature", "properties": { "STATEFP": "41", "COUNTYFP": "035", "COUNTYNS": "01155134", "AFFGEOID": "0500000US41035", "GEOID": "41035", "NAME": "Klamath", "LSAD": "06", "ALAND": 15391639803, "AWATER": 503686590, "x_coord": -121.650151, "y_coord": 42.686411 }, "geometry": { "type": "Point", "coordinates": [ -121.650151477040794, 42.686410690629039 ] } },
{ "type": "Feature", "properties": { "STATEFP": "41", "COUNTYFP": "039", "COUNTYNS": "01135855", "AFFGEOID": "0500000US41039", "GEOID": "41039", "NAME": "Lane", "LSAD": "06", "ALAND": 11801553916, "AWATER": 434809019, "x_coord": -122.847485, "y_coord": 43.93881 }, "geometry": { "type": "Point", "coordinates": [ -122.847484722986607, 43.938810068472122 ] } },
{ "type": "Feature", "properties": { "STATEFP": "41", "COUNTYFP": "043", "COUNTYNS": "01135857", "AFFGEOID": "0500000US41043", "GEOID": "41043", "NAME": "Linn", "LSAD": "06", "ALAND": 5923636964, "AWATER": 50354267, "x_coord": -122.534988, "y_coord": 44.488877 }, "geometry": { "type": "Point", "coordinates": [ -122.534988365732701, 44.488877217929073 ] } },
{ "type": "Feature", "properties": { "STATEFP": "41", "COUNTYFP": "051", "COUNTYNS": "01135861", "AFFGEOID": "0500000US41051", "GEOID": "41051", "NAME": "Multnomah", "LSAD": "06", "ALAND": 1116558776, "AWATER": 88222268, "x_coord": -122.41475, "y_coord": 45.546805 }, "geometry": { "type": "Point", "coordinates": [ -122.414750394608973, 45.546805001127211 ] } },
{ "type": "Feature", "properties": { "STATEFP": "41", "COUNTYFP": "055", "COUNTYNS": "01135863", "AFFGEOID": "0500000US41055", "GEOID": "41055", "NAME": "Sherman", "LSAD": "06", "ALAND": 2133151636, "AWATER": 19617472, "x_coord": -120.689363, "y_coord": 45.405238 }, "geometry": { "type": "Point", "coordinates": [ -120.689363423904553, 45.405237606713058 ] } },
{ "type": "Feature", "properties": { "STATEFP": "41", "COUNTYFP": "061", "COUNTYNS": "01164165", "AFFGEOID": "0500000US41061", "GEOID": "41061", "NAME": "Union", "LSAD": "06", "ALAND": 5275598331, "AWATER": 4989942, "x_coord": -118.008797, "y_coord": 45.310246 }, "geometry": { "type": "Point", "coordinates": [ -118.00879734104376, 45.310246194041547 ] } },
{ "type": "Feature", "properties": { "STATEFP": "42", "COUNTYFP": "005", "COUNTYNS": "01213658", "AFFGEOID": "0500000US42005", "GEOID": "42005", "NAME": "Armstrong", "LSAD": "06", "ALAND": 1691724751, "AWATER": 27619089, "x_coord": -79.464527, "y_coord": 40.812302 }, "geometry": { "type": "Point", "coordinates": [ -79.464526955726399, 40.812302283814219 ] } },
{ "type": "Feature", "properties": { "STATEFP": "42", "COUNTYFP": "029", "COUNTYNS": "01209174", "AFFGEOID": "0500000US42029", "GEOID": "42029", "NAME": "Chester", "LSAD": "06", "ALAND": 1943848979, "AWATER": 22559478, "x_coord": -75.748443, "y_coord": 39.973059 }, "geometry": { "type": "Point", "coordinates": [ -75.748443315771212, 39.973059057677752 ] } },
{ "type": "Feature", "properties": { "STATEFP": "42", "COUNTYFP": "035", "COUNTYNS": "01214721", "AFFGEOID": "0500000US42035", "GEOID": "42035", "NAME": "Clinton", "LSAD": "06", "ALAND": 2299868396, "AWATER": 23178635, "x_coord": -77.638146, "y_coord": 41.234052 }, "geometry": { "type": "Point", "coordinates": [ -77.638146183053578, 41.234052138385749 ] } },
{ "type": "Feature", "properties": { "STATEFP": "42", "COUNTYFP": "059", "COUNTYNS": "01214033", "AFFGEOID": "0500000US42059", "GEOID": "42059", "NAME": "Greene", "LSAD": "06", "ALAND": 1491700989, "AWATER": 5253865, "x_coord": -80.222922, "y_coord": 39.853835 }, "geometry": { "type": "Point", "coordinates": [ -80.222922479770631, 39.853834961257945 ] } },
{ "type": "Feature", "properties": { "STATEFP": "42", "COUNTYFP": "067", "COUNTYNS": "01209180", "AFFGEOID": "0500000US42067", "GEOID": "42067", "NAME": "Juniata", "LSAD": "06", "ALAND": 1013592882, "AWATER": 5606077, "x_coord": -77.40218, "y_coord": 40.531053 }, "geometry": { "type": "Point", "coordinates": [ -77.402179958386341, 40.531053100643099 ] } },
{ "type": "Feature", "properties": { "STATEFP": "42", "COUNTYFP": "091", "COUNTYNS": "01213680", "AFFGEOID": "0500000US42091", "GEOID": "42091", "NAME": "Montgomery", "LSAD": "06", "ALAND": 1250855248, "AWATER": 11016762, "x_coord": -75.367279, "y_coord": 40.210818 }, "geometry": { "type": "Point", "coordinates": [ -75.367278942216544, 40.210818455962666 ] } },
{ "type": "Feature", "properties": { "STATEFP": "42", "COUNTYFP": "111", "COUNTYNS": "01209188", "AFFGEOID": "0500000US42111", "GEOID": "42111", "NAME": "Somerset", "LSAD": "06", "ALAND": 2782592219, "AWATER": 17007774, "x_coord": -79.028259, "y_coord": 39.972468 }, "geometry": { "type": "Point", "coordinates": [ -79.028259233958551, 39.972468041122085 ] } },
{ "type": "Feature", "properties": { "STATEFP": "45", "COUNTYFP": "005", "COUNTYNS": "01247980", "AFFGEOID": "0500000US45005", "GEOID": "45005", "NAME": "Allendale", "LSAD": "06", "ALAND": 1056949844, "AWATER": 11205142, "x_coord": -81.3583, "y_coord": 32.988153 }, "geometry": { "type": "Point", "coordinates": [ -81.358300378722859, 32.98815286938099 ] } },
{ "type": "Feature", "properties": { "STATEFP": "45", "COUNTYFP": "019", "COUNTYNS": "01252740", "AFFGEOID": "0500000US45019", "GEOID": "45019", "NAME": "Charleston", "LSAD": "06", "ALAND": 2377399079, "AWATER": 1139779959, "x_coord": -79.953137, "y_coord": 32.834601 }, "geometry": { "type": "Point", "coordinates": [ -79.953137175945017, 32.834600890146362 ] } },
{ "type": "Feature", "properties": { "STATEFP": "45", "COUNTYFP": "025", "COUNTYNS": "01247989", "AFFGEOID": "0500000US45025", "GEOID": "45025", "NAME": "Chesterfield", "LSAD": "06", "ALAND": 2069282668, "AWATER": 17251306, "x_coord": -80.158737, "y_coord": 34.639802 }, "geometry": { "type": "Point", "coordinates": [ -80.158737388210881, 34.639802017049327 ] } },
{ "type": "Feature", "properties": { "STATEFP": "45", "COUNTYFP": "043", "COUNTYNS": "01248002", "AFFGEOID": "0500000US45043", "GEOID": "45043", "NAME": "Georgetown", "LSAD": "06", "ALAND": 2107953074, "AWATER": 573090683, "x_coord": -79.332302, "y_coord": 33.434298 }, "geometry": { "type": "Point", "coordinates": [ -79.332302408426372, 33.434298134247207 ] } },
{ "type": "Feature", "properties": { "STATEFP": "45", "COUNTYFP": "063", "COUNTYNS": "01244251", "AFFGEOID": "0500000US45063", "GEOID": "45063", "NAME": "Lexington", "LSAD": "06", "ALAND": 1810376222, "AWATER": 151906139, "x_coord": -81.272184, "y_coord": 33.902288 }, "geometry": { "type": "Point", "coordinates": [ -81.272183968394543, 33.902287607442979 ] } },
{ "type": "Feature", "properties": { "STATEFP": "45", "COUNTYFP": "077", "COUNTYNS": "01248015", "AFFGEOID": "0500000US45077", "GEOID": "45077", "NAME": "Pickens", "LSAD": "06", "ALAND": 1287006199, "AWATER": 40630298, "x_coord": -82.725238, "y_coord": 34.88731 }, "geometry": { "type": "Point", "coordinates": [ -82.725238000509989, 34.887309588242694 ] } },
{ "type": "Feature", "properties": { "STATEFP": "45", "COUNTYFP": "091", "COUNTYNS": "01248019", "AFFGEOID": "0500000US45091", "GEOID": "45091", "NAME": "York", "LSAD": "06", "ALAND": 1762934237, "AWATER": 39246244, "x_coord": -81.184371, "y_coord": 34.974733 }, "geometry": { "type": "Point", "coordinates": [ -81.184370685088439, 34.974733184079149 ] } },
{ "type": "Feature", "properties": { "STATEFP": "46", "COUNTYFP": "073", "COUNTYNS": "01265778", "AFFGEOID": "0500000US46073", "GEOID": "46073", "NAME": "Jerauld", "LSAD": "06", "ALAND": 1362677262, "AWATER": 16727973, "x_coord": -98.629658, "y_coord": 44.066334 }, "geometry": { "type": "Point", "coordinates": [ -98.629657836393903, 44.06633379814545 ] } },
{ "type": "Feature", "properties": { "STATEFP": "46", "COUNTYFP": "093", "COUNTYNS": "01266991", "AFFGEOID": "0500000US46093", "GEOID": "46093", "NAME": "Meade", "LSAD": "06", "ALAND": 8989706529, "AWATER": 30712697, "x_coord": -102.716846, "y_coord": 44.566814 }, "geometry": { "type": "Point", "coordinates": [ -102.716846077188521, 44.56681436137935 ] } },
{ "type": "Feature", "properties": { "STATEFP": "46", "COUNTYFP": "095", "COUNTYNS": "01267177", "AFFGEOID": "0500000US46095", "GEOID": "46095", "NAME": "Mellette", "LSAD": "06", "ALAND": 3385957220, "AWATER": 9219640, "x_coord": -100.759981, "y_coord": 43.581258 }, "geometry": { "type": "Point", "coordinates": [ -100.759981294888334, 43.581258348273821 ] } },
{ "type": "Feature", "properties": { "STATEFP": "46", "COUNTYFP": "123", "COUNTYNS": "01265784", "AFFGEOID": "0500000US46123", "GEOID": "46123", "NAME": "Tripp", "LSAD": "06", "ALAND": 4176247347, "AWATER": 13272786, "x_coord": -99.883959, "y_coord": 43.345932 }, "geometry": { "type": "Point", "coordinates": [ -99.883959297212371, 43.345932491661983 ] } },
{ "type": "Feature", "properties": { "STATEFP": "47", "COUNTYFP": "001", "COUNTYNS": "01639722", "AFFGEOID": "0500000US47001", "GEOID": "47001", "NAME": "Anderson", "LSAD": "06", "ALAND": 873352572, "AWATER": 19665032, "x_coord": -84.198458, "y_coord": 36.118453 }, "geometry": { "type": "Point", "coordinates": [ -84.198458166150814, 36.118453212838567 ] } },
{ "type": "Feature", "properties": { "STATEFP": "47", "COUNTYFP": "003", "COUNTYNS": "01639723", "AFFGEOID": "0500000US47003", "GEOID": "47003", "NAME": "Bedford", "LSAD": "06", "ALAND": 1226719775, "AWATER": 2980755, "x_coord": -86.458886, "y_coord": 35.513803 }, "geometry": { "type": "Point", "coordinates": [ -86.458886359958726, 35.513803460639991 ] } },
{ "type": "Feature", "properties": { "STATEFP": "47", "COUNTYFP": "005", "COUNTYNS": "01639724", "AFFGEOID": "0500000US47005", "GEOID": "47005", "NAME": "Benton", "LSAD": "06", "ALAND": 1021248372, "AWATER": 108583505, "x_coord": -88.068305, "y_coord": 36.069789 }, "geometry": { "type": "Point", "coordinates": [ -88.068305003694562, 36.069789302011152 ] } },
{ "type": "Feature", "properties": { "STATEFP": "47", "COUNTYFP": "019", "COUNTYNS": "01639730", "AFFGEOID": "0500000US47019", "GEOID": "47019", "NAME": "Carter", "LSAD": "06", "ALAND": 883854964, "AWATER": 16670132, "x_coord": -82.127475, "y_coord": 36.292763 }, "geometry": { "type": "Point", "coordinates": [ -82.127475044952249, 36.292763108006341 ] } },
{ "type": "Feature", "properties": { "STATEFP": "47", "COUNTYFP": "029", "COUNTYNS": "01639734", "AFFGEOID": "0500000US47029", "GEOID": "47029", "NAME": "Cocke", "LSAD": "06", "ALAND": 1128782873, "AWATER": 18734377, "x_coord": -83.121187, "y_coord": 35.925435 }, "geometry": { "type": "Point", "coordinates": [ -83.121187253082084, 35.925434799103321 ] } },
{ "type": "Feature", "properties": { "STATEFP": "47", "COUNTYFP": "049", "COUNTYNS": "01639743", "AFFGEOID": "0500000US47049", "GEOID": "47049", "NAME": "Fentress", "LSAD": "06", "ALAND": 1291397315, "AWATER": 829331, "x_coord": -84.932444, "y_coord": 36.380479 }, "geometry": { "type": "Point", "coordinates": [ -84.93244393316597, 36.380478768455148 ] } },
{ "type": "Feature", "properties": { "STATEFP": "47", "COUNTYFP": "063", "COUNTYNS": "01648576", "AFFGEOID": "0500000US47063", "GEOID": "47063", "NAME": "Hamblen", "LSAD": "06", "ALAND": 417477290, "AWATER": 37851130, "x_coord": -83.26668, "y_coord": 36.217139 }, "geometry": { "type": "Point", "coordinates": [ -83.266679898125915, 36.217139100291611 ] } },
{ "type": "Feature", "properties": { "STATEFP": "47", "COUNTYFP": "073", "COUNTYNS": "01639752", "AFFGEOID": "0500000US47073", "GEOID": "47073", "NAME": "Hawkins", "LSAD": "06", "ALAND": 1261465148, "AWATER": 32544793, "x_coord": -82.94467, "y_coord": 36.441179 }, "geometry": { "type": "Point", "coordinates": [ -82.944670382724823, 36.441178678155275 ] } },
{ "type": "Feature", "properties": { "STATEFP": "47", "COUNTYFP": "081", "COUNTYNS": "01639756", "AFFGEOID": "0500000US47081", "GEOID": "47081", "NAME": "Hickman", "LSAD": "06", "ALAND": 1586324709, "AWATER": 373710, "x_coord": -87.473338, "y_coord": 35.803232 }, "geometry": { "type": "Point", "coordinates": [ -87.473337668183163, 35.80323233377333 ] } },
{ "type": "Feature", "properties": { "STATEFP": "47", "COUNTYFP": "097", "COUNTYNS": "01639763", "AFFGEOID": "0500000US47097", "GEOID": "47097", "NAME": "Lauderdale", "LSAD": "06", "ALAND": 1222389174, "AWATER": 92231158, "x_coord": -89.631452, "y_coord": 35.760987 }, "geometry": { "type": "Point", "coordinates": [ -89.631451969627065, 35.76098741968999 ] } },
{ "type": "Feature", "properties": { "STATEFP": "47", "COUNTYFP": "121", "COUNTYNS": "01639775", "AFFGEOID": "0500000US47121", "GEOID": "47121", "NAME": "Meigs", "LSAD": "06", "ALAND": 505397666, "AWATER": 55976973, "x_coord": -84.813392, "y_coord": 35.512822 }, "geometry": { "type": "Point", "coordinates": [ -84.813391676532632, 35.512821888171004 ] } },
{ "type": "Feature", "properties": { "STATEFP": "47", "COUNTYFP": "149", "COUNTYNS": "01639787", "AFFGEOID": "0500000US47149", "GEOID": "47149", "NAME": "Rutherford", "LSAD": "06", "ALAND": 1603845509, "AWATER": 12453819, "x_coord": -86.416734, "y_coord": 35.842718 }, "geometry": { "type": "Point", "coordinates": [ -86.416734230348212, 35.842718167553194 ] } },
{ "type": "Feature", "properties": { "STATEFP": "47", "COUNTYFP": "173", "COUNTYNS": "01648583", "AFFGEOID": "0500000US47173", "GEOID": "47173", "NAME": "Union", "LSAD": "06", "ALAND": 579055049, "AWATER": 61028042, "x_coord": -83.837528, "y_coord": 36.287872 }, "geometry": { "type": "Point", "coordinates": [ -83.837528253157672, 36.287872390019473 ] } },
{ "type": "Feature", "properties": { "STATEFP": "48", "COUNTYFP": "007", "COUNTYNS": "01383789", "AFFGEOID": "0500000US48007", "GEOID": "48007", "NAME": "Aransas", "LSAD": "06", "ALAND": 652804638, "AWATER": 714591509, "x_coord": -96.993394, "y_coord": 28.124868 }, "geometry": { "type": "Point", "coordinates": [ -96.993394128940437, 28.124867656559907 ] } },
{ "type": "Feature", "properties": { "STATEFP": "25", "COUNTYFP": "001", "COUNTYNS": "00606927", "AFFGEOID": "0500000US25001", "GEOID": "25001", "NAME": "Barnstable", "LSAD": "06", "ALAND": 1021048430, "AWATER": 2360287543, "x_coord": -70.29149, "y_coord": 41.724179 }, "geometry": { "type": "Point", "coordinates": [ -70.291490421620907, 41.724178611977202 ] } },
{ "type": "Feature", "properties": { "STATEFP": "25", "COUNTYFP": "013", "COUNTYNS": "00606933", "AFFGEOID": "0500000US25013", "GEOID": "25013", "NAME": "Hampden", "LSAD": "06", "ALAND": 1597996708, "AWATER": 44417070, "x_coord": -72.631582, "y_coord": 42.135089 }, "geometry": { "type": "Point", "coordinates": [ -72.63158231245842, 42.135088955248051 ] } },
{ "type": "Feature", "properties": { "STATEFP": "25", "COUNTYFP": "025", "COUNTYNS": "00606939", "AFFGEOID": "0500000US25025", "GEOID": "25025", "NAME": "Suffolk", "LSAD": "06", "ALAND": 150855103, "AWATER": 160514584, "x_coord": -71.070874, "y_coord": 42.333589 }, "geometry": { "type": "Point", "coordinates": [ -71.070874303735337, 42.333589043569432 ] } },
{ "type": "Feature", "properties": { "STATEFP": "26", "COUNTYFP": "033", "COUNTYNS": "01622959", "AFFGEOID": "0500000US26033", "GEOID": "26033", "NAME": "Chippewa", "LSAD": "06", "ALAND": 4036515588, "AWATER": 2952489037, "x_coord": -84.577688, "y_coord": 46.30527 }, "geometry": { "type": "Point", "coordinates": [ -84.577687650581623, 46.3052701787893 ] } },
{ "type": "Feature", "properties": { "STATEFP": "26", "COUNTYFP": "053", "COUNTYNS": "01622969", "AFFGEOID": "0500000US26053", "GEOID": "26053", "NAME": "Gogebic", "LSAD": "06", "ALAND": 2854517985, "AWATER": 970153167, "x_coord": -89.694432, "y_coord": 46.408896 }, "geometry": { "type": "Point", "coordinates": [ -89.694431862238773, 46.408895699616636 ] } },
{ "type": "Feature", "properties": { "STATEFP": "26", "COUNTYFP": "063", "COUNTYNS": "01622974", "AFFGEOID": "0500000US26063", "GEOID": "26063", "NAME": "Huron", "LSAD": "06", "ALAND": 2165345386, "AWATER": 3368948803, "x_coord": -83.023231, "y_coord": 43.833357 }, "geometry": { "type": "Point", "coordinates": [ -83.023230630955055, 43.833356784079285 ] } },